{
"type": "FeatureCollection",
"crs": { "type": "name", "properties": { "name": "urn:ogc:def:crs:OGC:1.3:CRS84" } },
"features": [
{ "type": "Feature", "properties": { "F_": null, "区": "兵庫", "緊急避難場所の利用": "○", "避難所の利用": null, "名称": "高齢者ケアセンターひょうご", "住所": "神戸市兵庫区里山町1-48", "電話番号": "078-612-3335", "緯度": 34.6926209, "経度": 135.1409349, "郵便番号": "652-0051", "土砂災害": null, "洪水": null, "津波": null, "備考": null, "FID": 1 }, "geometry": { "type": "Point", "coordinates": [ 135.1409349, 34.692620899999973 ] } },
{ "type": "Feature", "properties": { "F_": null, "区": "北", "緊急避難場所の利用": "○", "避難所の利用": "○", "名称": "鵯台中学校", "住所": "神戸市北区ひよどり台1-15-31", "電話番号": "078-743-0072", "緯度": 34.6940922, "経度": 135.119395, "郵便番号": "651-1123", "土砂災害": null, "洪水": null, "津波": null, "備考": null, "FID": 2 }, "geometry": { "type": "Point", "coordinates": [ 135.119395, 34.694092199999986 ] } },
{ "type": "Feature", "properties": { "F_": null, "区": "北", "緊急避難場所の利用": "○", "避難所の利用": "○", "名称": "ひよどり台小学校", "住所": "神戸市北区ひよどり台3-3", "電話番号": "078-743-0062", "緯度": 34.6978361, "経度": 135.1248861, "郵便番号": "651-1123", "土砂災害": null, "洪水": null, "津波": null, "備考": null, "FID": 3 }, "geometry": { "type": "Point", "coordinates": [ 135.1248861, 34.697836099999989 ] } },
{ "type": "Feature", "properties": { "F_": null, "区": "北", "緊急避難場所の利用": "○", "避難所の利用": "○", "名称": "鵯越墓園", "住所": "神戸市北区山田町下谷上字中一里山12", "電話番号": "078-621-5667", "緯度": 34.6935479, "経度": 135.1392352, "郵便番号": "651-1243", "土砂災害": null, "洪水": null, "津波": null, "備考": null, "FID": 4 }, "geometry": { "type": "Point", "coordinates": [ 135.1392352, 34.693547899999984 ] } },
{ "type": "Feature", "properties": { "F_": null, "区": "北", "緊急避難場所の利用": "○", "避難所の利用": "○", "名称": "星和台中学校", "住所": "神戸市北区星和台1-6", "電話番号": "078-593-8400", "緯度": 34.7191089, "経度": 135.1285742, "郵便番号": "651-1121", "土砂災害": null, "洪水": null, "津波": null, "備考": null, "FID": 5 }, "geometry": { "type": "Point", "coordinates": [ 135.1285742, 34.719108899999981 ] } },
{ "type": "Feature", "properties": { "F_": null, "区": "北", "緊急避難場所の利用": "○", "避難所の利用": "○", "名称": "星和台小学校", "住所": "神戸市北区星和台6-21", "電話番号": "078-593-8200", "緯度": 34.7238111, "経度": 135.12375, "郵便番号": "651-1121", "土砂災害": null, "洪水": null, "津波": null, "備考": null, "FID": 6 }, "geometry": { "type": "Point", "coordinates": [ 135.12375, 34.7238111 ] } },
{ "type": "Feature", "properties": { "F_": null, "区": "北", "緊急避難場所の利用": "○", "避難所の利用": "○", "名称": "鈴蘭台中学校", "住所": "神戸市北区北五葉2-10-32", "電話番号": "078-591-4521", "緯度": 34.7293744, "経度": 135.1325319, "郵便番号": "651-1131", "土砂災害": null, "洪水": null, "津波": null, "備考": null, "FID": 7 }, "geometry": { "type": "Point", "coordinates": [ 135.1325319, 34.729374399999983 ] } },
{ "type": "Feature", "properties": { "F_": null, "区": "北", "緊急避難場所の利用": "○", "避難所の利用": "○", "名称": "北五葉小学校", "住所": "神戸市北区北五葉3-7-1", "電話番号": "078-591-1196", "緯度": 34.7305658, "経度": 135.1364567, "郵便番号": "651-1131", "土砂災害": null, "洪水": null, "津波": null, "備考": null, "FID": 8 }, "geometry": { "type": "Point", "coordinates": [ 135.1364567, 34.7305658 ] } },
{ "type": "Feature", "properties": { "F_": null, "区": "北", "緊急避難場所の利用": "○", "避難所の利用": "○", "名称": "藍那公民館", "住所": "神戸市北区山田町藍那字北ノ町4-7", "電話番号": "078-593-0303", "緯度": 34.73452925, "経度": 135.11629727, "郵便番号": "651-1104", "土砂災害": null, "洪水": null, "津波": null, "備考": null, "FID": 9 }, "geometry": { "type": "Point", "coordinates": [ 135.11629727, 34.73452925 ] } },
{ "type": "Feature", "properties": { "F_": null, "区": "北", "緊急避難場所の利用": "○", "避難所の利用": "○", "名称": "君影小学校", "住所": "神戸市北区君影町1-11-13", "電話番号": "078-592-0059", "緯度": 34.7143622, "経度": 135.1362431, "郵便番号": "651-1122", "土砂災害": null, "洪水": null, "津波": null, "備考": null, "FID": 10 }, "geometry": { "type": "Point", "coordinates": [ 135.1362431, 34.714362199999989 ] } },
{ "type": "Feature", "properties": { "F_": null, "区": "北", "緊急避難場所の利用": "○", "避難所の利用": "○", "名称": "南五葉小学校", "住所": "神戸市北区南五葉3-1-1", "電話番号": "078-591-1314", "緯度": 34.7220808, "経度": 135.1335958, "郵便番号": "651-1132", "土砂災害": null, "洪水": null, "津波": null, "備考": null, "FID": 11 }, "geometry": { "type": "Point", "coordinates": [ 135.1335958, 34.722080799999986 ] } },
{ "type": "Feature", "properties": { "F_": null, "区": "北", "緊急避難場所の利用": "○", "避難所の利用": "○", "名称": "鈴蘭台小学校", "住所": "神戸市北区鈴蘭台南町2-14-24", "電話番号": "078-592-8181", "緯度": 34.7253611, "経度": 135.140953599999989, "郵便番号": "651-1113", "土砂災害": null, "洪水": null, "津波": null, "備考": null, "FID": 12 }, "geometry": { "type": "Point", "coordinates": [ 135.140953599999989, 34.7253611 ] } },
{ "type": "Feature", "properties": { "F_": null, "区": "北", "緊急避難場所の利用": "○", "避難所の利用": "○", "名称": "神戸鈴蘭台高等学校", "住所": "神戸市北区山田町下谷上字中一里山9-107", "電話番号": "078-591-1331", "緯度": 34.7197425, "経度": 135.1531139, "郵便番号": "651-1243", "土砂災害": null, "洪水": null, "津波": null, "備考": null, "FID": 13 }, "geometry": { "type": "Point", "coordinates": [ 135.1531139, 34.7197425 ] } },
{ "type": "Feature", "properties": { "F_": null, "区": "北", "緊急避難場所の利用": "○", "避難所の利用": "○", "名称": "兵庫商業高等学校", "住所": "神戸市北区鈴蘭台北町1-24-1", "電話番号": "078-591-1121", "緯度": 34.7275192, "経度": 135.1470947, "郵便番号": "651-1111", "土砂災害": null, "洪水": null, "津波": null, "備考": null, "FID": 14 }, "geometry": { "type": "Point", "coordinates": [ 135.1470947, 34.7275192 ] } },
{ "type": "Feature", "properties": { "F_": null, "区": "北", "緊急避難場所の利用": "○", "避難所の利用": "○", "名称": "小部小学校", "住所": "神戸市北区鈴蘭台北町3-8-1", "電話番号": "078-591-1761", "緯度": 34.7296452, "経度": 135.1481373, "郵便番号": "651-1111", "土砂災害": null, "洪水": null, "津波": null, "備考": null, "FID": 15 }, "geometry": { "type": "Point", "coordinates": [ 135.1481373, 34.729645199999979 ] } },
{ "type": "Feature", "properties": { "F_": null, "区": "北", "緊急避難場所の利用": "○", "避難所の利用": "○", "名称": "小部中学校", "住所": "神戸市北区山田町小部字向井谷23-1", "電話番号": "078-592-1177", "緯度": 34.7304383, "経度": 135.1552522, "郵便番号": "651-1101", "土砂災害": null, "洪水": null, "津波": null, "備考": null, "FID": 16 }, "geometry": { "type": "Point", "coordinates": [ 135.1552522, 34.730438299999982 ] } },
{ "type": "Feature", "properties": { "F_": null, "区": "北", "緊急避難場所の利用": "○", "避難所の利用": "○", "名称": "小部東小学校", "住所": "神戸市北区鈴蘭台北町7-11-22", "電話番号": "078-592-0086", "緯度": 34.7277472, "経度": 135.1570161, "郵便番号": "651-1111", "土砂災害": null, "洪水": null, "津波": null, "備考": null, "FID": 17 }, "geometry": { "type": "Point", "coordinates": [ 135.1570161, 34.7277472 ] } },
{ "type": "Feature", "properties": { "F_": null, "区": "北", "緊急避難場所の利用": "○", "避難所の利用": "○", "名称": "泉台小学校", "住所": "神戸市北区泉台3-1-4", "電話番号": "078-593-7771", "緯度": 34.7384094, "経度": 135.1374203, "郵便番号": "651-1141", "土砂災害": null, "洪水": null, "津波": null, "備考": null, "FID": 18 }, "geometry": { "type": "Point", "coordinates": [ 135.1374203, 34.7384094 ] } },
{ "type": "Feature", "properties": { "F_": null, "区": "北", "緊急避難場所の利用": "○", "避難所の利用": "○", "名称": "桜の宮小学校", "住所": "神戸市北区若葉台1-3-15", "電話番号": "078-591-1009", "緯度": 34.7405872, "経度": 135.154424400000011, "郵便番号": "651-1143", "土砂災害": null, "洪水": null, "津波": null, "備考": null, "FID": 19 }, "geometry": { "type": "Point", "coordinates": [ 135.154424400000011, 34.7405872 ] } },
{ "type": "Feature", "properties": { "F_": null, "区": "北", "緊急避難場所の利用": "○", "避難所の利用": "○", "名称": "桜の宮中学校", "住所": "神戸市北区大脇台6-1", "電話番号": "078-593-8001", "緯度": 34.7381208, "経度": 135.159857499999987, "郵便番号": "651-1144", "土砂災害": null, "洪水": null, "津波": null, "備考": null, "FID": 20 }, "geometry": { "type": "Point", "coordinates": [ 135.159857499999987, 34.7381208 ] } },
{ "type": "Feature", "properties": { "F_": null, "区": "北", "緊急避難場所の利用": "○", "避難所の利用": "○", "名称": "大原中学校", "住所": "神戸市北区大原1-19", "電話番号": "078-581-6661", "緯度": 34.7459253, "経度": 135.143903099999989, "郵便番号": "651-1222", "土砂災害": null, "洪水": null, "津波": null, "備考": null, "FID": 21 }, "geometry": { "type": "Point", "coordinates": [ 135.143903099999989, 34.7459253 ] } },
{ "type": "Feature", "properties": { "F_": null, "区": "北", "緊急避難場所の利用": "○", "避難所の利用": "○", "名称": "桂木小学校", "住所": "神戸市北区桂木1-2-5", "電話番号": "078-582-4001", "緯度": 34.7478194, "経度": 135.14575, "郵便番号": "651-1223", "土砂災害": null, "洪水": null, "津波": null, "備考": null, "FID": 22 }, "geometry": { "type": "Point", "coordinates": [ 135.14575, 34.747819399999983 ] } },
{ "type": "Feature", "properties": { "F_": null, "区": "北", "緊急避難場所の利用": "○", "避難所の利用": "○", "名称": "甲緑小学校", "住所": "神戸市北区緑町7-12-10", "電話番号": "078-581-1221", "緯度": 34.74457, "経度": 135.150177500000012, "郵便番号": "651-1221", "土砂災害": null, "洪水": null, "津波": null, "備考": null, "FID": 23 }, "geometry": { "type": "Point", "coordinates": [ 135.150177500000012, 34.74457 ] } },
{ "type": "Feature", "properties": { "F_": null, "区": "北", "緊急避難場所の利用": "○", "避難所の利用": "○", "名称": "箕谷小学校", "住所": "神戸市北区松が枝町1-11", "電話番号": "078-581-8030", "緯度": 34.7582989, "経度": 135.149468899999988, "郵便番号": "651-1232", "土砂災害": null, "洪水": null, "津波": null, "備考": null, "FID": 24 }, "geometry": { "type": "Point", "coordinates": [ 135.149468899999988, 34.7582989 ] } },
{ "type": "Feature", "properties": { "F_": null, "区": "北", "緊急避難場所の利用": "○", "避難所の利用": "○", "名称": "広陵小学校", "住所": "神戸市北区筑紫が丘2-9-1", "電話番号": "078-583-0191", "緯度": 34.7484919, "経度": 135.1652094, "郵便番号": "651-1212", "土砂災害": null, "洪水": null, "津波": null, "備考": null, "FID": 25 }, "geometry": { "type": "Point", "coordinates": [ 135.1652094, 34.7484919 ] } },
{ "type": "Feature", "properties": { "F_": null, "区": "北", "緊急避難場所の利用": "○", "避難所の利用": "○", "名称": "広陵中学校", "住所": "神戸市北区小倉台5-1-1", "電話番号": "078-583-1313", "緯度": 34.749419, "経度": 135.169860300000011, "郵便番号": "651-1211", "土砂災害": null, "洪水": null, "津波": null, "備考": null, "FID": 26 }, "geometry": { "type": "Point", "coordinates": [ 135.169860300000011, 34.74942 ] } },
{ "type": "Feature", "properties": { "F_": null, "区": "北", "緊急避難場所の利用": "○", "避難所の利用": "○", "名称": "筑紫が丘小学校", "住所": "神戸市北区筑紫が丘3-4-1", "電話番号": "078-581-1006", "緯度": 34.7442508, "経度": 135.1626847, "郵便番号": "651-1212", "土砂災害": null, "洪水": null, "津波": null, "備考": null, "FID": 27 }, "geometry": { "type": "Point", "coordinates": [ 135.1626847, 34.7442508 ] } },
{ "type": "Feature", "properties": { "F_": null, "区": "北", "緊急避難場所の利用": "○", "避難所の利用": "○", "名称": "山田中学校", "住所": "神戸市北区山田町下谷上字宮前15", "電話番号": "078-581-1068", "緯度": 34.7631097, "経度": 135.15656, "郵便番号": "651-1242", "土砂災害": null, "洪水": null, "津波": null, "備考": null, "FID": 28 }, "geometry": { "type": "Point", "coordinates": [ 135.15656, 34.763109700000015 ] } },
{ "type": "Feature", "properties": { "F_": null, "区": "北", "緊急避難場所の利用": "○", "避難所の利用": "○", "名称": "谷上小学校", "住所": "神戸市北区山田町下谷上字中上16", "電話番号": "078-581-3351", "緯度": 34.763356, "経度": 135.1695683, "郵便番号": "651-1242", "土砂災害": "×", "洪水": null, "津波": null, "備考": "《土砂災害時》土砂災害警戒区域外（山田中学校）へ避難すること", "FID": 29 }, "geometry": { "type": "Point", "coordinates": [ 135.1695683, 34.763356 ] } },
{ "type": "Feature", "properties": { "F_": null, "区": "北", "緊急避難場所の利用": "○", "避難所の利用": "○", "名称": "山田小学校", "住所": "神戸市北区山田町中字長尾サ1", "電話番号": "078-581-0055", "緯度": 34.7655384, "経度": 135.1315793, "郵便番号": "651-1253", "土砂災害": null, "洪水": null, "津波": null, "備考": null, "FID": 30 }, "geometry": { "type": "Point", "coordinates": [ 135.1315793, 34.7655384 ] } },
{ "type": "Feature", "properties": { "F_": null, "区": "北", "緊急避難場所の利用": "○", "避難所の利用": "○", "名称": "自然休養村管理センター", "住所": "神戸市北区山田町衝原字道南13-1", "電話番号": "078-583-4980", "緯度": 34.7685228, "経度": 135.1040874, "郵便番号": "651-1264", "土砂災害": null, "洪水": null, "津波": null, "備考": null, "FID": 31 }, "geometry": { "type": "Point", "coordinates": [ 135.1040874, 34.768522799999985 ] } },
{ "type": "Feature", "properties": { "F_": null, "区": "北", "緊急避難場所の利用": "○", "避難所の利用": "○", "名称": "花山小学校", "住所": "神戸市北区花山東町3-1", "電話番号": "078-583-1120", "緯度": 34.765207, "経度": 135.1851184, "郵便番号": "651-1204", "土砂災害": null, "洪水": null, "津波": null, "備考": null, "FID": 32 }, "geometry": { "type": "Point", "coordinates": [ 135.1851184, 34.765207 ] } },
{ "type": "Feature", "properties": { "F_": null, "区": "北", "緊急避難場所の利用": "○", "避難所の利用": "○", "名称": "大池中学校", "住所": "神戸市北区西大池2-24-3", "電話番号": "078-581-8034", "緯度": 34.7722335, "経度": 135.1959735, "郵便番号": "651-1201", "土砂災害": null, "洪水": null, "津波": null, "備考": null, "FID": 33 }, "geometry": { "type": "Point", "coordinates": [ 135.1959735, 34.7722335 ] } },
{ "type": "Feature", "properties": { "F_": null, "区": "北", "緊急避難場所の利用": "○", "避難所の利用": "○", "名称": "大池小学校", "住所": "神戸市北区西大池2-24-1", "電話番号": "078-581-8032", "緯度": 34.7721855, "経度": 135.1985989, "郵便番号": "651-1201", "土砂災害": null, "洪水": null, "津波": null, "備考": null, "FID": 34 }, "geometry": { "type": "Point", "coordinates": [ 135.1985989, 34.7721855 ] } },
{ "type": "Feature", "properties": { "F_": null, "区": "北", "緊急避難場所の利用": "○", "避難所の利用": "○", "名称": "六甲が丘会館", "住所": "神戸市北区東大池1-5-8", "電話番号": "078-981-8806", "緯度": 34.7794996, "経度": 135.2000142, "郵便番号": "651-1333", "土砂災害": null, "洪水": null, "津波": null, "備考": null, "FID": 35 }, "geometry": { "type": "Point", "coordinates": [ 135.2000142, 34.7794996 ] } },
{ "type": "Feature", "properties": { "F_": null, "区": "北", "緊急避難場所の利用": "○", "避難所の利用": "○", "名称": "唐櫃中学校", "住所": "神戸市北区唐櫃台4-36-1", "電話番号": "078-982-6461", "緯度": 34.7849856, "経度": 135.2116828, "郵便番号": "651-1332", "土砂災害": null, "洪水": null, "津波": null, "備考": null, "FID": 36 }, "geometry": { "type": "Point", "coordinates": [ 135.2116828, 34.7849856 ] } },
{ "type": "Feature", "properties": { "F_": null, "区": "北", "緊急避難場所の利用": "○", "避難所の利用": "○", "名称": "唐櫃小学校", "住所": "神戸市北区唐櫃台2-39-1", "電話番号": "078-981-5926", "緯度": 34.789835, "経度": 135.2140461, "郵便番号": "651-1332", "土砂災害": null, "洪水": null, "津波": null, "備考": null, "FID": 37 }, "geometry": { "type": "Point", "coordinates": [ 135.2140461, 34.789835 ] } },
{ "type": "Feature", "properties": { "F_": null, "区": "北", "緊急避難場所の利用": "○", "避難所の利用": "○", "名称": "神戸北高等学校", "住所": "神戸市北区唐櫃台2-41-1", "電話番号": "078-981-0131", "緯度": 34.7884603, "経度": 135.2166767, "郵便番号": "651-1332", "土砂災害": null, "洪水": null, "津波": null, "備考": null, "FID": 38 }, "geometry": { "type": "Point", "coordinates": [ 135.2166767, 34.788460299999983 ] } },
{ "type": "Feature", "properties": { "F_": null, "区": "北", "緊急避難場所の利用": "○", "避難所の利用": "○", "名称": "有馬小学校", "住所": "神戸市北区有馬町1274", "電話番号": "078-904-0170", "緯度": 34.8009372, "経度": 135.248467799999986, "郵便番号": "651-1302", "土砂災害": null, "洪水": null, "津波": null, "備考": null, "FID": 39 }, "geometry": { "type": "Point", "coordinates": [ 135.248467799999986, 34.8009372 ] } },
{ "type": "Feature", "properties": { "F_": null, "区": "北", "緊急避難場所の利用": "○", "避難所の利用": "○", "名称": "五社ふれあい館", "住所": "神戸市北区有野町有野878-1", "電話番号": "-", "緯度": 34.8051587, "経度": 135.215392799999989, "郵便番号": "651-1312", "土砂災害": null, "洪水": null, "津波": null, "備考": null, "FID": 40 }, "geometry": { "type": "Point", "coordinates": [ 135.215392799999989, 34.8051587 ] } },
{ "type": "Feature", "properties": { "F_": null, "区": "北", "緊急避難場所の利用": "○", "避難所の利用": "○", "名称": "有馬中学校", "住所": "神戸市北区有野台7-18", "電話番号": "078-981-5101", "緯度": 34.8096414, "経度": 135.2264669, "郵便番号": "651-1321", "土砂災害": null, "洪水": null, "津波": null, "備考": null, "FID": 41 }, "geometry": { "type": "Point", "coordinates": [ 135.2264669, 34.8096414 ] } },
{ "type": "Feature", "properties": { "F_": null, "区": "北", "緊急避難場所の利用": "○", "避難所の利用": "○", "名称": "有野台小学校", "住所": "神戸市北区有野台2-8", "電話番号": "078-981-5111", "緯度": 34.8123106, "経度": 135.2256558, "郵便番号": "651-1321", "土砂災害": null, "洪水": null, "津波": null, "備考": null, "FID": 42 }, "geometry": { "type": "Point", "coordinates": [ 135.2256558, 34.8123106 ] } },
{ "type": "Feature", "properties": { "F_": null, "区": "北", "緊急避難場所の利用": "○", "避難所の利用": "○", "名称": "有野東小学校", "住所": "神戸市北区有野台5-2", "電話番号": "078-982-3051", "緯度": 34.8137606, "経度": 135.2298719, "郵便番号": "651-1231", "土砂災害": null, "洪水": null, "津波": null, "備考": null, "FID": 43 }, "geometry": { "type": "Point", "coordinates": [ 135.2298719, 34.8137606 ] } },
{ "type": "Feature", "properties": { "F_": null, "区": "北", "緊急避難場所の利用": "○", "避難所の利用": "○", "名称": "藤原台小学校", "住所": "神戸市北区藤原台南町1-13-1", "電話番号": "078-982-5880", "緯度": 34.8128017, "経度": 135.2081294, "郵便番号": "651-1303", "土砂災害": null, "洪水": null, "津波": null, "備考": null, "FID": 44 }, "geometry": { "type": "Point", "coordinates": [ 135.2081294, 34.812801700000016 ] } },
{ "type": "Feature", "properties": { "F_": null, "区": "北", "緊急避難場所の利用": "○", "避難所の利用": "○", "名称": "有野小学校", "住所": "神戸市北区藤原台中町3-17-1", "電話番号": "078-981-5341", "緯度": 34.8206678, "経度": 135.2178647, "郵便番号": "651-1401", "土砂災害": null, "洪水": null, "津波": null, "備考": null, "FID": 45 }, "geometry": { "type": "Point", "coordinates": [ 135.2178647, 34.820667799999981 ] } },
{ "type": "Feature", "properties": { "F_": null, "区": "北", "緊急避難場所の利用": "○", "避難所の利用": "○", "名称": "有野中学校", "住所": "神戸市北区藤原台中町5-2-1", "電話番号": "078-982-2700", "緯度": 34.8220619, "経度": 135.214115, "郵便番号": "651-1302", "土砂災害": null, "洪水": null, "津波": null, "備考": null, "FID": 46 }, "geometry": { "type": "Point", "coordinates": [ 135.214115, 34.8220619 ] } },
{ "type": "Feature", "properties": { "F_": null, "区": "北", "緊急避難場所の利用": "○", "避難所の利用": "○", "名称": "有野北中学校", "住所": "神戸市北区藤原台北町6-4-1", "電話番号": "078-987-3057", "緯度": 34.8297614, "経度": 135.2231308, "郵便番号": "651-1301", "土砂災害": null, "洪水": null, "津波": null, "備考": null, "FID": 47 }, "geometry": { "type": "Point", "coordinates": [ 135.2231308, 34.82976140000001 ] } },
{ "type": "Feature", "properties": { "F_": null, "区": "北", "緊急避難場所の利用": "○", "避難所の利用": "○", "名称": "ＪＡ兵庫六甲（神戸北文化センター）", "住所": "神戸市北区有野中町2-12-13", "電話番号": "078-981-6550", "緯度": 34.8266315, "経度": 135.2261756, "郵便番号": "651-1313", "土砂災害": null, "洪水": null, "津波": null, "備考": null, "FID": 48 }, "geometry": { "type": "Point", "coordinates": [ 135.2261756, 34.8266315 ] } },
{ "type": "Feature", "properties": { "F_": null, "区": "北", "緊急避難場所の利用": "○", "避難所の利用": "○", "名称": "西山小学校", "住所": "神戸市北区西山1-67", "電話番号": "078-952-1800", "緯度": 34.8388828, "経度": 135.2182786, "郵便番号": "651-1305", "土砂災害": null, "洪水": null, "津波": null, "備考": null, "FID": 49 }, "geometry": { "type": "Point", "coordinates": [ 135.2182786, 34.8388828 ] } },
{ "type": "Feature", "properties": { "F_": null, "区": "北", "緊急避難場所の利用": "○", "避難所の利用": "○", "名称": "西二郎集会所", "住所": "神戸市北区有野町二郎3446-2", "電話番号": "-", "緯度": 34.837994, "経度": 135.2270181, "郵便番号": "651-1311", "土砂災害": null, "洪水": null, "津波": null, "備考": null, "FID": 50 }, "geometry": { "type": "Point", "coordinates": [ 135.2270181, 34.837994 ] } },
{ "type": "Feature", "properties": { "F_": null, "区": "北", "緊急避難場所の利用": "○", "避難所の利用": "○", "名称": "道場小学校", "住所": "神戸市北区道場町塩田1460", "電話番号": "078-985-4016", "緯度": 34.86956563, "経度": 135.23248537, "郵便番号": "651-1501", "土砂災害": null, "洪水": "×", "津波": null, "備考": "《水害時》地区内の別の避難場所へ避難すること", "FID": 51 }, "geometry": { "type": "Point", "coordinates": [ 135.23248537, 34.86956563 ] } },
{ "type": "Feature", "properties": { "F_": null, "区": "北", "緊急避難場所の利用": "○", "避難所の利用": "○", "名称": "生野自治会館", "住所": "神戸市北区道場町生野285", "電話番号": "078-985-5322", "緯度": 34.866292, "経度": 135.250965, "郵便番号": "651-1503", "土砂災害": null, "洪水": null, "津波": null, "備考": null, "FID": 52 }, "geometry": { "type": "Point", "coordinates": [ 135.250965, 34.866292 ] } },
{ "type": "Feature", "properties": { "F_": null, "区": "北", "緊急避難場所の利用": "○", "避難所の利用": "○", "名称": "平田自治会館", "住所": "神戸市北区道場町平田553", "電話番号": "078-985-5866", "緯度": 34.8514614, "経度": 135.2390834, "郵便番号": "651-1504", "土砂災害": null, "洪水": null, "津波": null, "備考": null, "FID": 53 }, "geometry": { "type": "Point", "coordinates": [ 135.2390834, 34.8514614 ] } },
{ "type": "Feature", "properties": { "F_": null, "区": "北", "緊急避難場所の利用": "○", "避難所の利用": "○", "名称": "生野高原安心コミュニティプラザ", "住所": "神戸市北区道場町生野1172-1022", "電話番号": "-", "緯度": 34.8511135, "経度": 135.2731905, "郵便番号": "651-1503", "土砂災害": null, "洪水": null, "津波": null, "備考": null, "FID": 54 }, "geometry": { "type": "Point", "coordinates": [ 135.2731905, 34.8511135 ] } },
{ "type": "Feature", "properties": { "F_": null, "区": "北", "緊急避難場所の利用": "○", "避難所の利用": "○", "名称": "八多小・中学校", "住所": "神戸市北区八多町附物876", "電話番号": "078-982-0048(小)、078-982-0049(中)", "緯度": 34.8225998, "経度": 135.1956558, "郵便番号": "651-1343", "土砂災害": null, "洪水": null, "津波": null, "備考": null, "FID": 55 }, "geometry": { "type": "Point", "coordinates": [ 135.1956558, 34.8225998 ] } },
{ "type": "Feature", "properties": { "F_": null, "区": "北", "緊急避難場所の利用": "○", "避難所の利用": "○", "名称": "中公民館", "住所": "神戸市北区八多町中1177", "電話番号": "078-951-0303", "緯度": 34.854635, "経度": 135.22045, "郵便番号": "651-1351", "土砂災害": null, "洪水": null, "津波": null, "備考": null, "FID": 56 }, "geometry": { "type": "Point", "coordinates": [ 135.22045, 34.854635 ] } },
{ "type": "Feature", "properties": { "F_": null, "区": "北", "緊急避難場所の利用": "○", "避難所の利用": "○", "名称": "大沢小・中学校", "住所": "神戸市北区大沢町中大沢976", "電話番号": "078-954-0310(小)、078-954-0142(中)", "緯度": 34.8550778, "経度": 135.165180600000014, "郵便番号": "651-1524", "土砂災害": null, "洪水": null, "津波": null, "備考": null, "FID": 57 }, "geometry": { "type": "Point", "coordinates": [ 135.165180600000014, 34.8550778 ] } },
{ "type": "Feature", "properties": { "F_": null, "区": "北", "緊急避難場所の利用": "○", "避難所の利用": "○", "名称": "上大沢ふれあい会館", "住所": "神戸市北区大沢町上大沢3080", "電話番号": "078-954-0633", "緯度": 34.8488791, "経度": 135.183686099999989, "郵便番号": "651-1522", "土砂災害": null, "洪水": null, "津波": null, "備考": null, "FID": 58 }, "geometry": { "type": "Point", "coordinates": [ 135.183686099999989, 34.8488791 ] } },
{ "type": "Feature", "properties": { "F_": null, "区": "北", "緊急避難場所の利用": "○", "避難所の利用": "○", "名称": "長尾小学校", "住所": "神戸市北区上津台3-4-1", "電話番号": "078-986-2074", "緯度": 34.8657092, "経度": 135.194476400000013, "郵便番号": "651-1515", "土砂災害": null, "洪水": null, "津波": null, "備考": null, "FID": 59 }, "geometry": { "type": "Point", "coordinates": [ 135.194476400000013, 34.8657092 ] } },
{ "type": "Feature", "properties": { "F_": null, "区": "北", "緊急避難場所の利用": "○", "避難所の利用": "○", "名称": "岩谷公会堂", "住所": "神戸市北区長尾町上津4604", "電話番号": "078-986-2510", "緯度": 34.8836095, "経度": 135.173383199999989, "郵便番号": "651-1512", "土砂災害": null, "洪水": null, "津波": null, "備考": null, "FID": 60 }, "geometry": { "type": "Point", "coordinates": [ 135.173383199999989, 34.8836095 ] } },
{ "type": "Feature", "properties": { "F_": null, "区": "北", "緊急避難場所の利用": "○", "避難所の利用": "○", "名称": "鹿の子台小学校", "住所": "神戸市北区鹿の子台北町6-34-1", "電話番号": "078-952-1720", "緯度": 34.8610031, "経度": 135.218328899999989, "郵便番号": "651-1513", "土砂災害": null, "洪水": null, "津波": null, "備考": null, "FID": 61 }, "geometry": { "type": "Point", "coordinates": [ 135.218328899999989, 34.861003099999984 ] } },
{ "type": "Feature", "properties": { "F_": null, "区": "東灘", "緊急避難場所の利用": "○", "避難所の利用": "○", "名称": "東灘小学校", "住所": "神戸市東灘区深江北町2-4-1", "電話番号": "078-411-0556", "緯度": 34.7248161, "経度": 135.2944292, "郵便番号": "658-0013", "土砂災害": null, "洪水": null, "津波": "×", "備考": "《津波時》国道2号より山側へ避難すること", "FID": 62 }, "geometry": { "type": "Point", "coordinates": [ 135.2944292, 34.724816099999977 ] } },
{ "type": "Feature", "properties": { "F_": null, "区": "北", "緊急避難場所の利用": "○", "避難所の利用": "○", "名称": "北神戸中学校", "住所": "神戸市北区鹿の子台北町2-8-1", "電話番号": "078-951-0821", "緯度": 34.8629167, "経度": 135.22287, "郵便番号": "651-1513", "土砂災害": null, "洪水": null, "津波": null, "備考": null, "FID": 63 }, "geometry": { "type": "Point", "coordinates": [ 135.22287, 34.8629167 ] } },
{ "type": "Feature", "properties": { "F_": null, "区": "東灘", "緊急避難場所の利用": "○", "避難所の利用": "○", "名称": "本庄小学校", "住所": "神戸市東灘区青木4-4-1", "電話番号": "078-411-0339", "緯度": 34.7211525, "経度": 135.2888714, "郵便番号": "658-0027", "土砂災害": null, "洪水": null, "津波": "×", "備考": "《津波時》国道2号より山側へ避難すること", "FID": 64 }, "geometry": { "type": "Point", "coordinates": [ 135.2888714, 34.7211525 ] } },
{ "type": "Feature", "properties": { "F_": null, "区": "北", "緊急避難場所の利用": "○", "避難所の利用": "○", "名称": "好徳小学校", "住所": "神戸市北区淡河町野瀬487", "電話番号": "078-958-0004", "緯度": 34.8224556, "経度": 135.150195599999989, "郵便番号": "651-1623", "土砂災害": null, "洪水": null, "津波": null, "備考": null, "FID": 65 }, "geometry": { "type": "Point", "coordinates": [ 135.150195599999989, 34.8224556 ] } },
{ "type": "Feature", "properties": { "F_": null, "区": "東灘", "緊急避難場所の利用": "○", "避難所の利用": "○", "名称": "本庄中学校", "住所": "神戸市東灘区青木4-4-2", "電話番号": "078-411-2261", "緯度": 34.7203025, "経度": 135.2875439, "郵便番号": "658-0027", "土砂災害": null, "洪水": null, "津波": "×", "備考": "《津波時》国道2号より山側へ避難すること", "FID": 66 }, "geometry": { "type": "Point", "coordinates": [ 135.2875439, 34.720302499999974 ] } },
{ "type": "Feature", "properties": { "F_": null, "区": "北", "緊急避難場所の利用": "○", "避難所の利用": "○", "名称": "淡河中学校", "住所": "神戸市北区淡河町行原字中沢179-2", "電話番号": "078-958-0301", "緯度": 34.8195472, "経度": 135.1240617, "郵便番号": "651-1613", "土砂災害": null, "洪水": null, "津波": null, "備考": null, "FID": 67 }, "geometry": { "type": "Point", "coordinates": [ 135.1240617, 34.8195472 ] } },
{ "type": "Feature", "properties": { "F_": null, "区": "東灘", "緊急避難場所の利用": "○", "避難所の利用": "○", "名称": "東灘高校", "住所": "神戸市東灘区深江浜町50", "電話番号": "078-452-9600", "緯度": 34.7099789, "経度": 135.3010486, "郵便番号": "658-0023", "土砂災害": null, "洪水": null, "津波": "×", "備考": "《津波時》国道2号より山側へ避難すること", "FID": 68 }, "geometry": { "type": "Point", "coordinates": [ 135.3010486, 34.709978899999989 ] } },
{ "type": "Feature", "properties": { "F_": null, "区": "北", "緊急避難場所の利用": "○", "避難所の利用": "○", "名称": "淡河小学校", "住所": "神戸市北区淡河町萩原524", "電話番号": "078-959-0113", "緯度": 34.8163308, "経度": 135.102152499999988, "郵便番号": "651-1615", "土砂災害": null, "洪水": null, "津波": null, "備考": null, "FID": 69 }, "geometry": { "type": "Point", "coordinates": [ 135.102152499999988, 34.816330799999989 ] } },
{ "type": "Feature", "properties": { "F_": null, "区": "長田", "緊急避難場所の利用": "○", "避難所の利用": "○", "名称": "室内小学校", "住所": "神戸市長田区前原町1-17-1", "電話番号": "078-691-0917", "緯度": 34.6734728, "経度": 135.1543644, "郵便番号": "653-0803", "土砂災害": null, "洪水": null, "津波": null, "備考": null, "FID": 70 }, "geometry": { "type": "Point", "coordinates": [ 135.1543644, 34.6734728 ] } },
{ "type": "Feature", "properties": { "F_": null, "区": "東灘", "緊急避難場所の利用": "○", "避難所の利用": "○", "名称": "神戸大学海事科学部", "住所": "神戸市東灘区深江南町5-1-1", "電話番号": "078-431-6200", "緯度": 34.7187444, "経度": 135.2883578, "郵便番号": "658-0022", "土砂災害": null, "洪水": null, "津波": "×", "備考": "《津波時》国道2号より山側へ避難すること", "FID": 71 }, "geometry": { "type": "Point", "coordinates": [ 135.2883578, 34.718744399999984 ] } },
{ "type": "Feature", "properties": { "F_": null, "区": "東灘", "緊急避難場所の利用": "○", "避難所の利用": "○", "名称": "魚崎小学校", "住所": "神戸市東灘区魚崎中町4-10-8", "電話番号": "078-411-6196", "緯度": 34.715028, "経度": 135.2771222, "郵便番号": "658-0063", "土砂災害": null, "洪水": null, "津波": null, "備考": null, "FID": 72 }, "geometry": { "type": "Point", "coordinates": [ 135.2771222, 34.715028 ] } },
{ "type": "Feature", "properties": { "F_": null, "区": "長田", "緊急避難場所の利用": "○", "避難所の利用": "○", "名称": "長田公民館", "住所": "神戸市長田区四番町4-51", "電話番号": "078-575-1374", "緯度": 34.6697571, "経度": 135.154554100000013, "郵便番号": "653-0004", "土砂災害": null, "洪水": null, "津波": null, "備考": null, "FID": 73 }, "geometry": { "type": "Point", "coordinates": [ 135.154554100000013, 34.6697571 ] } },
{ "type": "Feature", "properties": { "F_": null, "区": "長田", "緊急避難場所の利用": "○", "避難所の利用": "○", "名称": "夢野台高校", "住所": "神戸市長田区房王寺町2-1-1", "電話番号": "078-691-1546", "緯度": 34.6770833, "経度": 135.1534672, "郵便番号": "653-0801", "土砂災害": null, "洪水": null, "津波": null, "備考": null, "FID": 74 }, "geometry": { "type": "Point", "coordinates": [ 135.1534672, 34.677083299999985 ] } },
{ "type": "Feature", "properties": { "F_": null, "区": "東灘", "緊急避難場所の利用": "○", "避難所の利用": "○", "名称": "灘中・高校", "住所": "神戸市東灘区魚崎北町8-5-1", "電話番号": "078-411-7234", "緯度": 34.7191636, "経度": 135.2684539, "郵便番号": "658-0082", "土砂災害": null, "洪水": null, "津波": null, "備考": null, "FID": 75 }, "geometry": { "type": "Point", "coordinates": [ 135.2684539, 34.719163599999987 ] } },
{ "type": "Feature", "properties": { "F_": null, "区": "長田", "緊急避難場所の利用": "○", "避難所の利用": "○", "名称": "名倉小学校", "住所": "神戸市長田区房王寺町4-7-15", "電話番号": "078-691-6181", "緯度": 34.6799497, "経度": 135.1479261, "郵便番号": "653-0801", "土砂災害": "△", "洪水": null, "津波": null, "備考": "《土砂災害時》避難経路の通行に注意が必要。", "FID": 76 }, "geometry": { "type": "Point", "coordinates": [ 135.1479261, 34.679949699999987 ] } },
{ "type": "Feature", "properties": { "F_": null, "区": "東灘", "緊急避難場所の利用": "○", "避難所の利用": "○", "名称": "本山第一小学校", "住所": "神戸市東灘区本山北町3-10-1", "電話番号": "078-411-1974", "緯度": 34.7289433, "経度": 135.2789056, "郵便番号": "658-0003", "土砂災害": null, "洪水": null, "津波": null, "備考": null, "FID": 77 }, "geometry": { "type": "Point", "coordinates": [ 135.2789056, 34.7289433 ] } },
{ "type": "Feature", "properties": { "F_": null, "区": "長田", "緊急避難場所の利用": "○", "避難所の利用": "○", "名称": "丸山中学校", "住所": "神戸市長田区大丸町2-17-1", "電話番号": "078-691-0005", "緯度": 34.6780025, "経度": 135.1487342, "郵便番号": "653-0806", "土砂災害": null, "洪水": null, "津波": null, "備考": null, "FID": 78 }, "geometry": { "type": "Point", "coordinates": [ 135.1487342, 34.6780025 ] } },
{ "type": "Feature", "properties": { "F_": null, "区": "東灘", "緊急避難場所の利用": "○", "避難所の利用": "○", "名称": "甲南女子中・高校", "住所": "神戸市東灘区森北町5-6-1", "電話番号": "078-411-2531", "緯度": 34.7349206, "経度": 135.2917292, "郵便番号": "658-0001", "土砂災害": null, "洪水": null, "津波": null, "備考": null, "FID": 79 }, "geometry": { "type": "Point", "coordinates": [ 135.2917292, 34.7349206 ] } },
{ "type": "Feature", "properties": { "F_": null, "区": "長田", "緊急避難場所の利用": "○", "避難所の利用": "○", "名称": "雲雀丘小学校", "住所": "神戸市長田区雲雀ヶ丘1-1-2", "電話番号": "078-621-6021", "緯度": 34.6911906, "経度": 135.1347398, "郵便番号": "653-0879", "土砂災害": null, "洪水": null, "津波": null, "備考": null, "FID": 80 }, "geometry": { "type": "Point", "coordinates": [ 135.1347398, 34.691190599999985 ] } },
{ "type": "Feature", "properties": { "F_": null, "区": "長田", "緊急避難場所の利用": "○", "避難所の利用": "○", "名称": "雲雀丘中学校", "住所": "神戸市長田区雲雀ヶ丘1-1-1", "電話番号": "078-631-8748", "緯度": 34.6915231, "経度": 135.134313100000014, "郵便番号": "653-0879", "土砂災害": null, "洪水": null, "津波": null, "備考": null, "FID": 81 }, "geometry": { "type": "Point", "coordinates": [ 135.134313100000014, 34.6915231 ] } },
{ "type": "Feature", "properties": { "F_": null, "区": "東灘", "緊急避難場所の利用": "○", "避難所の利用": "○", "名称": "神戸薬科大学", "住所": "神戸市東灘区本山北町4-19-1", "電話番号": "078-453-0031", "緯度": 34.733115, "経度": 135.2832689, "郵便番号": "658-0003", "土砂災害": "△", "洪水": null, "津波": null, "備考": "《土砂災害時》正門が土砂災害警戒区域内にあるので注意が必要。早めに避難すること", "FID": 82 }, "geometry": { "type": "Point", "coordinates": [ 135.2832689, 34.733115 ] } },
{ "type": "Feature", "properties": { "F_": null, "区": "長田", "緊急避難場所の利用": "○", "避難所の利用": "○", "名称": "丸山小学校", "住所": "神戸市長田区西丸山町3-2-1", "電話番号": "078-691-8552", "緯度": 34.686435, "経度": 135.13759060000001, "郵便番号": "653-0874", "土砂災害": null, "洪水": null, "津波": null, "備考": null, "FID": 83 }, "geometry": { "type": "Point", "coordinates": [ 135.13759060000001, 34.686435 ] } },
{ "type": "Feature", "properties": { "F_": null, "区": "東灘", "緊急避難場所の利用": "○", "避難所の利用": "○", "名称": "本山第二小学校", "住所": "神戸市東灘区西岡本1-3-1", "電話番号": "078-431-1441", "緯度": 34.7253269, "経度": 135.269575800000013, "郵便番号": "658-0073", "土砂災害": null, "洪水": null, "津波": null, "備考": null, "FID": 84 }, "geometry": { "type": "Point", "coordinates": [ 135.269575800000013, 34.7253269 ] } },
{ "type": "Feature", "properties": { "F_": null, "区": "長田", "緊急避難場所の利用": "○", "避難所の利用": "○", "名称": "総合療育センター", "住所": "神戸市長田区丸山町2-3-50", "電話番号": "078-646-5291", "緯度": 34.6833695, "経度": 135.1400806, "郵便番号": "653-0875", "土砂災害": null, "洪水": null, "津波": null, "備考": null, "FID": 85 }, "geometry": { "type": "Point", "coordinates": [ 135.1400806, 34.683369499999976 ] } },
{ "type": "Feature", "properties": { "F_": null, "区": "東灘", "緊急避難場所の利用": "○", "避難所の利用": "○", "名称": "本山中学校", "住所": "神戸市東灘区岡本3-3-1", "電話番号": "078-411-3742", "緯度": 34.7256325, "経度": 135.270939700000014, "郵便番号": "658-0072", "土砂災害": null, "洪水": null, "津波": null, "備考": null, "FID": 86 }, "geometry": { "type": "Point", "coordinates": [ 135.270939700000014, 34.725632499999989 ] } },
{ "type": "Feature", "properties": { "F_": null, "区": "長田", "緊急避難場所の利用": "○", "避難所の利用": "○", "名称": "丸山コミュニティ・センター", "住所": "神戸市長田区西丸山町1-7-5", "電話番号": "078-643-3447", "緯度": 34.685991, "経度": 135.140907199999987, "郵便番号": "653-0874", "土砂災害": null, "洪水": null, "津波": null, "備考": null, "FID": 87 }, "geometry": { "type": "Point", "coordinates": [ 135.140907199999987, 34.685991 ] } },
{ "type": "Feature", "properties": { "F_": null, "区": "東灘", "緊急避難場所の利用": "○", "避難所の利用": "○", "名称": "甲南大学", "住所": "神戸市東灘区岡本8-9-1", "電話番号": "078-431-4341", "緯度": 34.729734, "経度": 135.2679925, "郵便番号": "658-0072", "土砂災害": "△", "洪水": null, "津波": null, "備考": "《土砂災害時》土砂災害警戒区域外。（本山第二小学校）へ避難すること。ただし、警戒区域外への避難が困難な方や余裕のない場合は利用可", "FID": 88 }, "geometry": { "type": "Point", "coordinates": [ 135.2679925, 34.72973 ] } },
{ "type": "Feature", "properties": { "F_": null, "区": "長田", "緊急避難場所の利用": "○", "避難所の利用": "○", "名称": "宮川小学校", "住所": "神戸市長田区長田町4-1-1", "電話番号": "078-631-2721", "緯度": 34.6722262, "経度": 135.147288800000013, "郵便番号": "653-0812", "土砂災害": null, "洪水": "△", "津波": null, "備考": "《洪水時》避難経路の通行に注意が必要", "FID": 89 }, "geometry": { "type": "Point", "coordinates": [ 135.147288800000013, 34.6722262 ] } },
{ "type": "Feature", "properties": { "F_": null, "区": "東灘", "緊急避難場所の利用": "○", "避難所の利用": "○", "名称": "本山第三小学校", "住所": "神戸市東灘区本山中町1-2-35", "電話番号": "078-411-0005", "緯度": 34.7280906, "経度": 135.2864103, "郵便番号": "658-0016", "土砂災害": null, "洪水": "×", "津波": null, "備考": "《洪水時》河川氾濫時は早めに本山第一小学校へ避難すること", "FID": 90 }, "geometry": { "type": "Point", "coordinates": [ 135.2864103, 34.728090599999987 ] } },
{ "type": "Feature", "properties": { "F_": null, "区": "長田", "緊急避難場所の利用": "○", "避難所の利用": "○", "名称": "池田小学校", "住所": "神戸市長田区池田上町19", "電話番号": "078-691-1661", "緯度": 34.6678811, "経度": 135.144929600000012, "郵便番号": "653-0824", "土砂災害": "△", "洪水": null, "津波": null, "備考": "《土砂災害時》避難経路の通行に注意が必要。", "FID": 91 }, "geometry": { "type": "Point", "coordinates": [ 135.144929600000012, 34.667881099999988 ] } },
{ "type": "Feature", "properties": { "F_": null, "区": "長田", "緊急避難場所の利用": "○", "避難所の利用": "○", "名称": "西代中学校", "住所": "神戸市長田区上池田2-4-1", "電話番号": "078-691-1521", "緯度": 34.6681814, "経度": 135.1396686, "郵便番号": "653-0827", "土砂災害": "×", "洪水": null, "津波": null, "備考": "《土砂災害時》土砂災害警戒区域外の緊急避難場所へ避難すること", "FID": 92 }, "geometry": { "type": "Point", "coordinates": [ 135.1396686, 34.6681814 ] } },
{ "type": "Feature", "properties": { "F_": null, "区": "東灘", "緊急避難場所の利用": "○", "避難所の利用": "○", "名称": "住吉小学校", "住所": "神戸市東灘区住吉東町4-1-31", "電話番号": "078-851-2887", "緯度": 34.7175747, "経度": 135.264485, "郵便番号": "658-0052", "土砂災害": null, "洪水": "×", "津波": null, "備考": "《洪水時》河川氾濫時は友生支援学校へ避難すること", "FID": 93 }, "geometry": { "type": "Point", "coordinates": [ 135.264485, 34.717574699999986 ] } },
{ "type": "Feature", "properties": { "F_": null, "区": "長田", "緊急避難場所の利用": "○", "避難所の利用": "○", "名称": "長田高校", "住所": "神戸市長田区池田谷町2-5", "電話番号": "078-621-4101", "緯度": 34.6702422, "経度": 135.14353220000001, "郵便番号": "653-0821", "土砂災害": null, "洪水": null, "津波": null, "備考": null, "FID": 94 }, "geometry": { "type": "Point", "coordinates": [ 135.14353220000001, 34.670242199999976 ] } },
{ "type": "Feature", "properties": { "F_": null, "区": "長田", "緊急避難場所の利用": "○", "避難所の利用": "○", "名称": "蓮池小学校", "住所": "神戸市長田区大谷町1-1-10", "電話番号": "078-691-4215", "緯度": 34.662435, "経度": 135.143212799999986, "郵便番号": "653-0838", "土砂災害": null, "洪水": null, "津波": null, "備考": null, "FID": 95 }, "geometry": { "type": "Point", "coordinates": [ 135.143212799999986, 34.662435 ] } },
{ "type": "Feature", "properties": { "F_": null, "区": "東灘", "緊急避難場所の利用": "○", "避難所の利用": "○", "名称": "友生支援学校住吉分校", "住所": "神戸市東灘区住吉東町4-1-58", "電話番号": "078-851-0630", "緯度": 34.7170611, "経度": 135.2655489, "郵便番号": "658-0052", "土砂災害": null, "洪水": null, "津波": null, "備考": null, "FID": 96 }, "geometry": { "type": "Point", "coordinates": [ 135.2655489, 34.7170611 ] } },
{ "type": "Feature", "properties": { "F_": null, "区": "長田", "緊急避難場所の利用": "○", "避難所の利用": "○", "名称": "神戸常盤大学", "住所": "神戸市長田区大谷町2-6-2", "電話番号": "078-611-1821", "緯度": 34.6654958, "経度": 135.141182500000014, "郵便番号": "653-0838", "土砂災害": "△", "洪水": null, "津波": null, "備考": "《土砂災害時》避難経路の通行に注意が必要。", "FID": 97 }, "geometry": { "type": "Point", "coordinates": [ 135.141182500000014, 34.665495799999974 ] } },
{ "type": "Feature", "properties": { "F_": null, "区": "長田", "緊急避難場所の利用": "○", "避難所の利用": "○", "名称": "長田小学校", "住所": "神戸市長田区西山町2-4-1", "電話番号": "078-631-2731", "緯度": 34.6725142, "経度": 135.1428822, "郵便番号": "653-0862", "土砂災害": null, "洪水": null, "津波": null, "備考": null, "FID": 98 }, "geometry": { "type": "Point", "coordinates": [ 135.1428822, 34.672514199999988 ] } },
{ "type": "Feature", "properties": { "F_": null, "区": "東灘", "緊急避難場所の利用": "○", "避難所の利用": "○", "名称": "住之江公民館", "住所": "神戸市東灘区住吉宮町2-2-3", "電話番号": "078-822-1300", "緯度": 34.7139751, "経度": 135.2636564, "郵便番号": "658-0053", "土砂災害": null, "洪水": "×", "津波": null, "備考": "《洪水時》河川氾濫時は友生支援学校へ避難すること", "FID": 99 }, "geometry": { "type": "Point", "coordinates": [ 135.2636564, 34.713975099999978 ] } },
{ "type": "Feature", "properties": { "F_": null, "区": "長田", "緊急避難場所の利用": "○", "避難所の利用": "○", "名称": "高取台中学校", "住所": "神戸市長田区高取山町1-1-1", "電話番号": "078-611-6325", "緯度": 34.6713811, "経度": 135.137235299999986, "郵便番号": "653-0856", "土砂災害": "△", "洪水": null, "津波": null, "備考": "《土砂災害時》避難経路の通行に注意が必要。", "FID": 100 }, "geometry": { "type": "Point", "coordinates": [ 135.137235299999986, 34.671381099999984 ] } },
{ "type": "Feature", "properties": { "F_": null, "区": "長田", "緊急避難場所の利用": "○", "避難所の利用": "○", "名称": "育英高校", "住所": "神戸市長田区長尾町2-1-15", "電話番号": "078-611-6001", "緯度": 34.6684842, "経度": 135.1348078, "郵便番号": "653-0855", "土砂災害": "×", "洪水": null, "津波": null, "備考": "《土砂災害時》土砂災害警戒区域外の緊急避難場所へ避難すること", "FID": 101 }, "geometry": { "type": "Point", "coordinates": [ 135.1348078, 34.6684842 ] } },
{ "type": "Feature", "properties": { "F_": null, "区": "東灘", "緊急避難場所の利用": "○", "避難所の利用": "○", "名称": "住之江公民館別館", "住所": "神戸市東灘区住吉宮町2-1-3", "電話番号": "078-822-1300", "緯度": 34.7143023, "経度": 135.264677400000011, "郵便番号": "658-0053", "土砂災害": null, "洪水": "×", "津波": null, "備考": "《洪水時》河川氾濫時は友生支援学校へ避難すること", "FID": 102 }, "geometry": { "type": "Point", "coordinates": [ 135.264677400000011, 34.714302299999979 ] } },
{ "type": "Feature", "properties": { "F_": null, "区": "長田", "緊急避難場所の利用": "○", "避難所の利用": "○", "名称": "五位の池小学校", "住所": "神戸市長田区五位ノ池町2-3-1", "電話番号": "078-631-2741", "緯度": 34.6660659, "経度": 135.136351499999989, "郵便番号": "653-0851", "土砂災害": null, "洪水": null, "津波": null, "備考": null, "FID": 103 }, "geometry": { "type": "Point", "coordinates": [ 135.136351499999989, 34.6660659 ] } },
{ "type": "Feature", "properties": { "F_": null, "区": "長田", "緊急避難場所の利用": "○", "避難所の利用": "○", "名称": "御蔵小学校", "住所": "神戸市長田区一番町4-1", "電話番号": "078-575-2226", "緯度": 34.6679653, "経度": 135.1551811, "郵便番号": "653-0013", "土砂災害": null, "洪水": null, "津波": null, "備考": null, "FID": 104 }, "geometry": { "type": "Point", "coordinates": [ 135.1551811, 34.667965299999985 ] } },
{ "type": "Feature", "properties": { "F_": null, "区": "東灘", "緊急避難場所の利用": "○", "避難所の利用": "○", "名称": "呉田会館", "住所": "神戸市東灘区住吉南町4-6-23", "電話番号": "078-841-4060", "緯度": 34.7107873, "経度": 135.262486599999988, "郵便番号": "658-0041", "土砂災害": null, "洪水": null, "津波": null, "備考": null, "FID": 105 }, "geometry": { "type": "Point", "coordinates": [ 135.262486599999988, 34.7107873 ] } },
{ "type": "Feature", "properties": { "F_": null, "区": "長田", "緊急避難場所の利用": "○", "避難所の利用": "○", "名称": "真野小学校", "住所": "神戸市長田区苅藻通3-4-32", "電話番号": "078-671-0190", "緯度": 34.6570313, "経度": 135.1540769, "郵便番号": "653-0083", "土砂災害": null, "洪水": null, "津波": null, "備考": null, "FID": 106 }, "geometry": { "type": "Point", "coordinates": [ 135.1540769, 34.6570313 ] } },
{ "type": "Feature", "properties": { "F_": null, "区": "東灘", "緊急避難場所の利用": "○", "避難所の利用": "○", "名称": "御影小学校", "住所": "神戸市東灘区御影石町3-1-1", "電話番号": "078-851-3673", "緯度": 34.7148111, "経度": 135.251508300000012, "郵便番号": "658-0045", "土砂災害": null, "洪水": null, "津波": null, "備考": null, "FID": 107 }, "geometry": { "type": "Point", "coordinates": [ 135.251508300000012, 34.714811099999977 ] } },
{ "type": "Feature", "properties": { "F_": null, "区": "長田", "緊急避難場所の利用": "○", "避難所の利用": "○", "名称": "長田中学校", "住所": "神戸市長田区真野町8-1", "電話番号": "078-671-3757", "緯度": 34.6614128, "経度": 135.153109199999989, "郵便番号": "653-0025", "土砂災害": null, "洪水": null, "津波": null, "備考": null, "FID": 108 }, "geometry": { "type": "Point", "coordinates": [ 135.153109199999989, 34.6614128 ] } },
{ "type": "Feature", "properties": { "F_": null, "区": "東灘", "緊急避難場所の利用": "○", "避難所の利用": "○", "名称": "御影高校", "住所": "神戸市東灘区御影石町4-1-1", "電話番号": "078-841-1501", "緯度": 34.7169608, "経度": 135.250575, "郵便番号": "658-0045", "土砂災害": null, "洪水": null, "津波": null, "備考": null, "FID": 109 }, "geometry": { "type": "Point", "coordinates": [ 135.250575, 34.7169608 ] } },
{ "type": "Feature", "properties": { "F_": null, "区": "長田", "緊急避難場所の利用": "○", "避難所の利用": "○", "名称": "長田南小学校", "住所": "神戸市長田区神楽町1-3-1", "電話番号": "078-691-1702", "緯度": 34.6618374, "経度": 135.149854299999987, "郵便番号": "653-0836", "土砂災害": null, "洪水": null, "津波": null, "備考": null, "FID": 110 }, "geometry": { "type": "Point", "coordinates": [ 135.149854299999987, 34.6618374 ] } },
{ "type": "Feature", "properties": { "F_": null, "区": "東灘", "緊急避難場所の利用": "○", "避難所の利用": "○", "名称": "御影公会堂", "住所": "神戸市東灘区御影石町4-4-1", "電話番号": "078-841-2281", "緯度": 34.7160708, "経度": 135.2492512, "郵便番号": "658-0045", "土砂災害": null, "洪水": null, "津波": null, "備考": null, "FID": 111 }, "geometry": { "type": "Point", "coordinates": [ 135.2492512, 34.716070799999983 ] } },
{ "type": "Feature", "properties": { "F_": null, "区": "長田", "緊急避難場所の利用": "○", "避難所の利用": "○", "名称": "駒ヶ林中学校", "住所": "神戸市長田区若松町7-1-23", "電話番号": "078-611-0082", "緯度": 34.6551358, "経度": 135.143460299999987, "郵便番号": "653-0038", "土砂災害": null, "洪水": null, "津波": null, "備考": null, "FID": 112 }, "geometry": { "type": "Point", "coordinates": [ 135.143460299999987, 34.655135799999975 ] } },
{ "type": "Feature", "properties": { "F_": null, "区": "東灘", "緊急避難場所の利用": "○", "避難所の利用": "○", "名称": "御影北小学校", "住所": "神戸市東灘区御影山手1-12-1", "電話番号": "078-851-6809", "緯度": 34.7246294, "経度": 135.2488056, "郵便番号": "658-0065", "土砂災害": null, "洪水": null, "津波": null, "備考": null, "FID": 113 }, "geometry": { "type": "Point", "coordinates": [ 135.2488056, 34.7246294 ] } },
{ "type": "Feature", "properties": { "F_": null, "区": "長田", "緊急避難場所の利用": "○", "避難所の利用": "○", "名称": "真陽小学校", "住所": "神戸市長田区二葉町1-5-5", "電話番号": "078-611-0456", "緯度": 34.6555025, "経度": 135.151287200000013, "郵便番号": "653-0042", "土砂災害": null, "洪水": "△", "津波": null, "備考": "《洪水時》避難経路の通行に注意が必要", "FID": 114 }, "geometry": { "type": "Point", "coordinates": [ 135.151287200000013, 34.6555025 ] } },
{ "type": "Feature", "properties": { "F_": null, "区": "長田", "緊急避難場所の利用": "○", "避難所の利用": "○", "名称": "地域人材支援センター", "住所": "神戸市長田区二葉町7-1-18", "電話番号": "078-646-8128", "緯度": 34.6517707, "経度": 135.146261, "郵便番号": "653-0042", "土砂災害": null, "洪水": null, "津波": null, "備考": null, "FID": 115 }, "geometry": { "type": "Point", "coordinates": [ 135.146261, 34.651770699999986 ] } },
{ "type": "Feature", "properties": { "F_": null, "区": "東灘", "緊急避難場所の利用": "○", "避難所の利用": "○", "名称": "頌栄短期大学(ハウ記念館を含む）", "住所": "神戸市東灘区御影山手1-18-1", "電話番号": "078-842-2541", "緯度": 34.7274431, "経度": 135.2491389, "郵便番号": "658-0065", "土砂災害": "△", "洪水": null, "津波": null, "備考": "《土砂災害時》正門が土砂災害警戒区域内にあるので注意が必要。夜間及び土日祝日は避難勧告時に開設。", "FID": 116 }, "geometry": { "type": "Point", "coordinates": [ 135.2491389, 34.7274431 ] } },
{ "type": "Feature", "properties": { "F_": null, "区": "長田", "緊急避難場所の利用": "○", "避難所の利用": "○", "名称": "駒ケ林小学校", "住所": "神戸市長田区野田町6-1-16", "電話番号": "078-731-7061", "緯度": 34.6500314, "経度": 135.141464500000012, "郵便番号": "653-0052", "土砂災害": null, "洪水": null, "津波": null, "備考": null, "FID": 117 }, "geometry": { "type": "Point", "coordinates": [ 135.141464500000012, 34.6500314 ] } },
{ "type": "Feature", "properties": { "F_": null, "区": "東灘", "緊急避難場所の利用": "○", "避難所の利用": "○", "名称": "渦が森小学校", "住所": "神戸市東灘区渦森台1-12-1", "電話番号": "078-851-3185", "緯度": 34.7389833, "経度": 135.2503494, "郵便番号": "658-0066", "土砂災害": null, "洪水": null, "津波": null, "備考": null, "FID": 118 }, "geometry": { "type": "Point", "coordinates": [ 135.2503494, 34.7389833 ] } },
{ "type": "Feature", "properties": { "F_": null, "区": "須磨", "緊急避難場所の利用": "○", "避難所の利用": "○", "名称": "若宮小学校", "住所": "神戸市須磨区若宮町2-1-21", "電話番号": "078-731-0007", "緯度": 34.6463436, "経度": 135.131499600000012, "郵便番号": "654-0049", "土砂災害": null, "洪水": null, "津波": null, "備考": null, "FID": 119 }, "geometry": { "type": "Point", "coordinates": [ 135.131499600000012, 34.6463436 ] } },
{ "type": "Feature", "properties": { "F_": null, "区": "東灘", "緊急避難場所の利用": "○", "避難所の利用": null, "名称": "同朋住吉台保育園", "住所": "神戸市東灘区住吉台25-7", "電話番号": "078-846-6011", "緯度": 34.7386169, "経度": 135.2567989, "郵便番号": "658-0062", "土砂災害": null, "洪水": null, "津波": null, "備考": null, "FID": 120 }, "geometry": { "type": "Point", "coordinates": [ 135.2567989, 34.7386169 ] } },
{ "type": "Feature", "properties": { "F_": null, "区": "須磨", "緊急避難場所の利用": "○", "避難所の利用": "○", "名称": "鷹取中学校", "住所": "神戸市須磨区青葉町3-1-1", "電話番号": "078-731-0066", "緯度": 34.6479475, "経度": 135.132603100000011, "郵便番号": "654-0038", "土砂災害": null, "洪水": "×", "津波": null, "備考": "《水害時》南須磨公民館へ避難すること", "FID": 121 }, "geometry": { "type": "Point", "coordinates": [ 135.132603100000011, 34.647947499999987 ] } },
{ "type": "Feature", "properties": { "F_": null, "区": "須磨", "緊急避難場所の利用": "○", "避難所の利用": "○", "名称": "南須磨公民館", "住所": "神戸市須磨区青葉町2-2-3", "電話番号": "078-735-2770", "緯度": 34.6488167, "経度": 135.13332410000001, "郵便番号": "654-0038", "土砂災害": null, "洪水": null, "津波": null, "備考": null, "FID": 122 }, "geometry": { "type": "Point", "coordinates": [ 135.13332410000001, 34.648816699999983 ] } },
{ "type": "Feature", "properties": { "F_": null, "区": "東灘", "緊急避難場所の利用": "○", "避難所の利用": "○", "名称": "六甲アイランド小学校", "住所": "神戸市東灘区向洋町中2-7", "電話番号": "078-857-3121", "緯度": 34.6888558, "経度": 135.274498599999987, "郵便番号": "658-0032", "土砂災害": null, "洪水": null, "津波": null, "備考": null, "FID": 123 }, "geometry": { "type": "Point", "coordinates": [ 135.274498599999987, 34.6888558 ] } },
{ "type": "Feature", "properties": { "F_": null, "区": "須磨", "緊急避難場所の利用": "○", "避難所の利用": "○", "名称": "西須磨小学校", "住所": "神戸市須磨区行幸町3-4-18", "電話番号": "078-731-0295", "緯度": 34.6466586, "経度": 135.120420599999989, "郵便番号": "654-0052", "土砂災害": null, "洪水": null, "津波": null, "備考": null, "FID": 124 }, "geometry": { "type": "Point", "coordinates": [ 135.120420599999989, 34.6466586 ] } },
{ "type": "Feature", "properties": { "F_": null, "区": "東灘", "緊急避難場所の利用": "○", "避難所の利用": "○", "名称": "向洋中学校", "住所": "神戸市東灘区向洋町中2", "電話番号": "078-857-2481", "緯度": 34.6899361, "経度": 135.274062500000014, "郵便番号": "658-0032", "土砂災害": null, "洪水": null, "津波": null, "備考": null, "FID": 125 }, "geometry": { "type": "Point", "coordinates": [ 135.274062500000014, 34.6899361 ] } },
{ "type": "Feature", "properties": { "F_": null, "区": "須磨", "緊急避難場所の利用": "○", "避難所の利用": "○", "名称": "須磨一の谷プラザ", "住所": "神戸市須磨区一ノ谷町5-2-1", "電話番号": "078-731-8353", "緯度": 34.6411794, "経度": 135.1060922, "郵便番号": "654-0076", "土砂災害": "△", "洪水": null, "津波": null, "備考": "《土砂災害時》土砂災害警戒区域外（西須磨小学校）へ避難すること。ただし、警戒区域外への避難が困難な方や余裕のない場合は利用可", "FID": 126 }, "geometry": { "type": "Point", "coordinates": [ 135.1060922, 34.6411794 ] } },
{ "type": "Feature", "properties": { "F_": null, "区": "東灘", "緊急避難場所の利用": "○", "避難所の利用": "○", "名称": "六甲アイランド高校", "住所": "神戸市東灘区向洋町中4-4", "電話番号": "078-858-4000", "緯度": 34.6848339, "経度": 135.2714269, "郵便番号": "658-0032", "土砂災害": null, "洪水": null, "津波": null, "備考": null, "FID": 127 }, "geometry": { "type": "Point", "coordinates": [ 135.2714269, 34.6848339 ] } },
{ "type": "Feature", "properties": { "F_": null, "区": "須磨", "緊急避難場所の利用": "○", "避難所の利用": "○", "名称": "北須磨小学校", "住所": "神戸市須磨区離宮西町2-1-1", "電話番号": "078-731-8149", "緯度": 34.6526467, "経度": 135.1152711, "郵便番号": "654-0067", "土砂災害": null, "洪水": null, "津波": null, "備考": null, "FID": 128 }, "geometry": { "type": "Point", "coordinates": [ 135.1152711, 34.6526467 ] } },
{ "type": "Feature", "properties": { "F_": null, "区": "東灘", "緊急避難場所の利用": "○", "避難所の利用": "○", "名称": "福池小学校", "住所": "神戸市東灘区本山南町4-4-28", "電話番号": "078-452-5595", "緯度": 34.7212831, "経度": 135.2787669, "郵便番号": "658-0011", "土砂災害": null, "洪水": null, "津波": null, "備考": null, "FID": 129 }, "geometry": { "type": "Point", "coordinates": [ 135.2787669, 34.7212831 ] } },
{ "type": "Feature", "properties": { "F_": null, "区": "須磨", "緊急避難場所の利用": "○", "避難所の利用": "○", "名称": "だいち小学校", "住所": "神戸市須磨区大池町5-1-52", "電話番号": "078-739-1502", "緯度": 34.6542553, "経度": 135.1342833, "郵便番号": "654-0026", "土砂災害": null, "洪水": null, "津波": null, "備考": null, "FID": 130 }, "geometry": { "type": "Point", "coordinates": [ 135.1342833, 34.6542553 ] } },
{ "type": "Feature", "properties": { "F_": null, "区": "須磨", "緊急避難場所の利用": "○", "避難所の利用": "○", "名称": "太田中学校", "住所": "神戸市須磨区大黒町5-1-1", "電話番号": "078-732-0854", "緯度": 34.6576629, "経度": 135.1329026, "郵便番号": "654-0022", "土砂災害": null, "洪水": null, "津波": null, "備考": null, "FID": 131 }, "geometry": { "type": "Point", "coordinates": [ 135.1329026, 34.6576629 ] } },
{ "type": "Feature", "properties": { "F_": null, "区": "東灘", "緊急避難場所の利用": "○", "避難所の利用": "○", "名称": "本山南小学校", "住所": "神戸市東灘区本山南町8-2-1", "電話番号": "078-452-0071", "緯度": 34.7235717, "経度": 135.2824636, "郵便番号": "658-0011", "土砂災害": null, "洪水": "×", "津波": null, "備考": "《洪水時》河川氾濫時は早めに福池小学校へ避難すること", "FID": 132 }, "geometry": { "type": "Point", "coordinates": [ 135.2824636, 34.7235717 ] } },
{ "type": "Feature", "properties": { "F_": null, "区": "東灘", "緊急避難場所の利用": "○", "避難所の利用": "○", "名称": "神戸大学白鴎寮", "住所": "神戸市東灘区本山南町1-4-50", "電話番号": "078-431-6231", "緯度": 34.7235202, "経度": 135.2876408, "郵便番号": "658-0015", "土砂災害": null, "洪水": null, "津波": null, "備考": null, "FID": 133 }, "geometry": { "type": "Point", "coordinates": [ 135.2876408, 34.723520199999989 ] } },
{ "type": "Feature", "properties": { "F_": null, "区": "須磨", "緊急避難場所の利用": "○", "避難所の利用": "○", "名称": "東須磨小学校", "住所": "神戸市須磨区堀池町1‐2-1", "電話番号": "078-731-0448", "緯度": 34.654805, "経度": 135.1276478, "郵便番号": "654-0032", "土砂災害": null, "洪水": null, "津波": null, "備考": null, "FID": 134 }, "geometry": { "type": "Point", "coordinates": [ 135.1276478, 34.6548 ] } },
{ "type": "Feature", "properties": { "F_": null, "区": "須磨", "緊急避難場所の利用": "○", "避難所の利用": "○", "名称": "須磨体育館", "住所": "神戸市須磨区中島町1-2-2", "電話番号": "078-734-5588", "緯度": 34.6507528, "経度": 135.1289669, "郵便番号": "654-0035", "土砂災害": null, "洪水": null, "津波": null, "備考": null, "FID": 135 }, "geometry": { "type": "Point", "coordinates": [ 135.1289669, 34.650752799999978 ] } },
{ "type": "Feature", "properties": { "F_": null, "区": "東灘", "緊急避難場所の利用": "○", "避難所の利用": "○", "名称": "向洋小学校", "住所": "神戸市東灘区向洋町中6", "電話番号": "078-857-2450", "緯度": 34.6876808, "経度": 135.2644942, "郵便番号": "658-0032", "土砂災害": null, "洪水": null, "津波": null, "備考": null, "FID": 136 }, "geometry": { "type": "Point", "coordinates": [ 135.2644942, 34.687680799999988 ] } },
{ "type": "Feature", "properties": { "F_": null, "区": "須磨", "緊急避難場所の利用": "○", "避難所の利用": "○", "名称": "飛松中学校", "住所": "神戸市須磨区大手町8-4-25", "電話番号": "078-731-9494", "緯度": 34.6582739, "経度": 135.1257339, "郵便番号": "654-0013", "土砂災害": null, "洪水": null, "津波": null, "備考": null, "FID": 137 }, "geometry": { "type": "Point", "coordinates": [ 135.1257339, 34.6582739 ] } },
{ "type": "Feature", "properties": { "F_": null, "区": "東灘", "緊急避難場所の利用": "○", "避難所の利用": "○", "名称": "甲南小学校", "住所": "神戸市東灘区住吉本町1-12-1", "電話番号": "078-841-1201", "緯度": 34.7222717, "経度": 135.263996100000014, "郵便番号": "658-0051", "土砂災害": null, "洪水": null, "津波": null, "備考": null, "FID": 138 }, "geometry": { "type": "Point", "coordinates": [ 135.263996100000014, 34.7222717 ] } },
{ "type": "Feature", "properties": { "F_": null, "区": "須磨", "緊急避難場所の利用": "○", "避難所の利用": "○", "名称": "高倉台小学校", "住所": "神戸市須磨区高倉台4-1-1", "電話番号": "078-734-1766", "緯度": 34.6562628, "経度": 135.104119200000014, "郵便番号": "654-0074", "土砂災害": null, "洪水": null, "津波": null, "備考": null, "FID": 139 }, "geometry": { "type": "Point", "coordinates": [ 135.104119200000014, 34.6562628 ] } },
{ "type": "Feature", "properties": { "F_": null, "区": "東灘", "緊急避難場所の利用": "○", "避難所の利用": "○", "名称": "神大附属中等教育学校", "住所": "神戸市東灘区住吉山手5-11-1", "電話番号": "078-811-0232", "緯度": 34.7320231, "経度": 135.254499399999986, "郵便番号": "658-0063", "土砂災害": null, "洪水": null, "津波": null, "備考": null, "FID": 140 }, "geometry": { "type": "Point", "coordinates": [ 135.254499399999986, 34.7320231 ] } },
{ "type": "Feature", "properties": { "F_": null, "区": "須磨", "緊急避難場所の利用": "○", "避難所の利用": "○", "名称": "高倉中学校", "住所": "神戸市須磨区高倉台1-8-1", "電話番号": "078-733-1140", "緯度": 34.6536575, "経度": 135.1074356, "郵便番号": "654-0074", "土砂災害": null, "洪水": null, "津波": null, "備考": null, "FID": 141 }, "geometry": { "type": "Point", "coordinates": [ 135.1074356, 34.6536575 ] } },
{ "type": "Feature", "properties": { "F_": null, "区": "東灘", "緊急避難場所の利用": "○", "避難所の利用": "○", "名称": "本山南中学校", "住所": "神戸市東灘区田中町4-12-1", "電話番号": "078-412-2033", "緯度": 34.7231161, "経度": 135.270534199999986, "郵便番号": "658-0061", "土砂災害": null, "洪水": null, "津波": null, "備考": null, "FID": 142 }, "geometry": { "type": "Point", "coordinates": [ 135.270534199999986, 34.7231161 ] } },
{ "type": "Feature", "properties": { "F_": null, "区": "須磨", "緊急避難場所の利用": "○", "避難所の利用": "○", "名称": "板宿小学校", "住所": "神戸市須磨区菊池町1-1-1", "電話番号": "078-732-4055", "緯度": 34.6630653, "経度": 135.1331303, "郵便番号": "654-0008", "土砂災害": null, "洪水": null, "津波": null, "備考": null, "FID": 143 }, "geometry": { "type": "Point", "coordinates": [ 135.1331303, 34.6630653 ] } },
{ "type": "Feature", "properties": { "F_": null, "区": "東灘", "緊急避難場所の利用": "○", "避難所の利用": "○", "名称": "住吉中学校", "住所": "神戸市東灘区住吉山手1-11-1", "電話番号": "078-851-3752", "緯度": 34.7258628, "経度": 135.258721400000013, "郵便番号": "658-0063", "土砂災害": null, "洪水": null, "津波": null, "備考": null, "FID": 144 }, "geometry": { "type": "Point", "coordinates": [ 135.258721400000013, 34.7258628 ] } },
{ "type": "Feature", "properties": { "F_": null, "区": "須磨", "緊急避難場所の利用": "○", "避難所の利用": "○", "名称": "多井畑小学校", "住所": "神戸市須磨区友が丘3-106", "電話番号": "078-792-0450", "緯度": 34.6688778, "経度": 135.094341899999989, "郵便番号": "654-0142", "土砂災害": "△", "洪水": null, "津波": null, "備考": "《土砂災害時》西門が土砂災害警戒区域内にあるので注意、正門を利用すること", "FID": 145 }, "geometry": { "type": "Point", "coordinates": [ 135.094341899999989, 34.6688778 ] } },
{ "type": "Feature", "properties": { "F_": null, "区": "須磨", "緊急避難場所の利用": "○", "避難所の利用": "○", "名称": "友が丘中学校", "住所": "神戸市須磨区友が丘7-283-1", "電話番号": "078-792-5567", "緯度": 34.6731275, "経度": 135.0994969, "郵便番号": "654-0142", "土砂災害": null, "洪水": null, "津波": null, "備考": null, "FID": 146 }, "geometry": { "type": "Point", "coordinates": [ 135.0994969, 34.673127499999985 ] } },
{ "type": "Feature", "properties": { "F_": null, "区": "東灘", "緊急避難場所の利用": "○", "避難所の利用": "○", "名称": "御影中学校", "住所": "神戸市東灘区御影中町5-1-1", "電話番号": "078-841-2541", "緯度": 34.7159417, "経度": 135.2535331, "郵便番号": "658-0054", "土砂災害": null, "洪水": null, "津波": null, "備考": null, "FID": 147 }, "geometry": { "type": "Point", "coordinates": [ 135.2535331, 34.715941699999981 ] } },
{ "type": "Feature", "properties": { "F_": null, "区": "須磨", "緊急避難場所の利用": "○", "避難所の利用": "○", "名称": "多井畑自治会館", "住所": "神戸市須磨区多井畑字東所22", "電話番号": "078-741-5020", "緯度": 34.6608772, "経度": 135.0931745, "郵便番号": "654-0133", "土砂災害": null, "洪水": null, "津波": null, "備考": null, "FID": 148 }, "geometry": { "type": "Point", "coordinates": [ 135.0931745, 34.6608772 ] } },
{ "type": "Feature", "properties": { "F_": null, "区": "東灘", "緊急避難場所の利用": "○", "避難所の利用": "○", "名称": "魚崎中学校", "住所": "神戸市東灘区魚崎南町1-2-1", "電話番号": "078-411-1631", "緯度": 34.71312, "経度": 135.2790506, "郵便番号": "658-0025", "土砂災害": null, "洪水": null, "津波": "×", "備考": "《津波時》国道2号より山側へ避難すること", "FID": 149 }, "geometry": { "type": "Point", "coordinates": [ 135.2790506, 34.71312 ] } },
{ "type": "Feature", "properties": { "F_": null, "区": "須磨", "緊急避難場所の利用": "○", "避難所の利用": "○", "名称": "横尾小学校", "住所": "神戸市須磨区横尾5-3", "電話番号": "078-743-4511", "緯度": 34.6704253, "経度": 135.1115681, "郵便番号": "654-0131", "土砂災害": null, "洪水": null, "津波": null, "備考": null, "FID": 150 }, "geometry": { "type": "Point", "coordinates": [ 135.1115681, 34.6704253 ] } },
{ "type": "Feature", "properties": { "F_": null, "区": "東灘", "緊急避難場所の利用": "○", "避難所の利用": "○", "名称": "東灘体育館", "住所": "神戸市東灘区魚崎南町6-5-11", "電話番号": "078-452-9279", "緯度": 34.7147228, "経度": 135.2781374, "郵便番号": "658-0025", "土砂災害": null, "洪水": null, "津波": "×", "備考": "《津波時》国道2号より山側へ避難すること", "FID": 151 }, "geometry": { "type": "Point", "coordinates": [ 135.2781374, 34.7147228 ] } },
{ "type": "Feature", "properties": { "F_": null, "区": "須磨", "緊急避難場所の利用": "○", "避難所の利用": "○", "名称": "横尾中学校", "住所": "神戸市須磨区横尾2-1-2", "電話番号": "078-743-7322", "緯度": 34.6728241, "経度": 135.1157451, "郵便番号": "654-0131", "土砂災害": "△", "洪水": null, "津波": null, "備考": "《土砂災害時》通用門が土砂災害警戒区域内にあるので注意、正門を利用すること", "FID": 152 }, "geometry": { "type": "Point", "coordinates": [ 135.1157451, 34.6728241 ] } },
{ "type": "Feature", "properties": { "F_": null, "区": "須磨", "緊急避難場所の利用": "○", "避難所の利用": "○", "名称": "妙法寺小学校", "住所": "神戸市須磨区妙法寺字桜界地106-1", "電話番号": "078-741-2559", "緯度": 34.6760865, "経度": 135.1172147, "郵便番号": "654-0121", "土砂災害": "△", "洪水": null, "津波": null, "備考": "《土砂災害時》西門が土砂災害警戒区域内にあるので注意、南校舎側の門を利用すること", "FID": 153 }, "geometry": { "type": "Point", "coordinates": [ 135.1172147, 34.676086499999982 ] } },
{ "type": "Feature", "properties": { "F_": null, "区": "灘", "緊急避難場所の利用": "○", "避難所の利用": "○", "名称": "鶴甲小学校", "住所": "神戸市灘区鶴甲2-10-1", "電話番号": "078-821-0444", "緯度": 34.7335836, "経度": 135.2363925, "郵便番号": "657-0011", "土砂災害": "△", "洪水": null, "津波": null, "備考": "《土砂災害時》正門が土砂災害警戒区域内にあるので注意、早めに避難すること", "FID": 154 }, "geometry": { "type": "Point", "coordinates": [ 135.2363925, 34.7335836 ] } },
{ "type": "Feature", "properties": { "F_": null, "区": "須磨", "緊急避難場所の利用": "○", "避難所の利用": "○", "名称": "神戸星城高校", "住所": "神戸市須磨区緑ヶ丘1-12-1", "電話番号": "078-741-1860", "緯度": 34.6820128, "経度": 135.116261900000012, "郵便番号": "654-0113", "土砂災害": null, "洪水": null, "津波": null, "備考": null, "FID": 155 }, "geometry": { "type": "Point", "coordinates": [ 135.116261900000012, 34.6820128 ] } },
{ "type": "Feature", "properties": { "F_": null, "区": "須磨", "緊急避難場所の利用": "○", "避難所の利用": "○", "名称": "南落合小学校", "住所": "神戸市須磨区南落合3-11-1", "電話番号": "078-792-5244", "緯度": 34.6763078, "経度": 135.10146610000001, "郵便番号": "654-0153", "土砂災害": null, "洪水": null, "津波": null, "備考": null, "FID": 156 }, "geometry": { "type": "Point", "coordinates": [ 135.10146610000001, 34.676307799999982 ] } },
{ "type": "Feature", "properties": { "F_": null, "区": "灘", "緊急避難場所の利用": "○", "避難所の利用": "○", "名称": "神戸大学農学部", "住所": "神戸市灘区六甲台町1-1", "電話番号": "078-803-5921(昼)、078-803-5777(夜)", "緯度": 34.726217, "経度": 135.237133300000011, "郵便番号": "657-0013", "土砂災害": null, "洪水": null, "津波": null, "備考": null, "FID": 157 }, "geometry": { "type": "Point", "coordinates": [ 135.237133300000011, 34.726217 ] } },
{ "type": "Feature", "properties": { "F_": null, "区": "須磨", "緊急避難場所の利用": "○", "避難所の利用": "○", "名称": "竜が台小学校", "住所": "神戸市須磨区竜が台6-15-1", "電話番号": "078-793-1833", "緯度": 34.6745411, "経度": 135.0911614, "郵便番号": "654-0141", "土砂災害": null, "洪水": null, "津波": null, "備考": null, "FID": 158 }, "geometry": { "type": "Point", "coordinates": [ 135.0911614, 34.6745411 ] } },
{ "type": "Feature", "properties": { "F_": null, "区": "灘", "緊急避難場所の利用": "○", "避難所の利用": "○", "名称": "神戸大学工学部", "住所": "神戸市灘区六甲台町1-1", "電話番号": "078-803-6333(昼)、078-803-5777(夜)", "緯度": 34.726217, "経度": 135.237133300000011, "郵便番号": "657-0013", "土砂災害": null, "洪水": null, "津波": null, "備考": null, "FID": 159 }, "geometry": { "type": "Point", "coordinates": [ 135.237133300000011, 34.726217 ] } },
{ "type": "Feature", "properties": { "F_": null, "区": "灘", "緊急避難場所の利用": "○", "避難所の利用": "○", "名称": "神戸大学発達科学部", "住所": "神戸市灘区鶴甲３-11", "電話番号": "078-803-7905(昼)、078-803-7941(夜)", "緯度": 34.734609, "経度": 135.234484, "郵便番号": "657-0011", "土砂災害": null, "洪水": null, "津波": null, "備考": null, "FID": 160 }, "geometry": { "type": "Point", "coordinates": [ 135.234484, 34.734609 ] } },
{ "type": "Feature", "properties": { "F_": null, "区": "灘", "緊急避難場所の利用": "○", "避難所の利用": null, "名称": "神戸松蔭女子学院大学", "住所": "神戸市灘区篠原伯母野山町1-2-1", "電話番号": "078-882-6175", "緯度": 34.72736, "経度": 135.2295239, "郵便番号": "657-0015", "土砂災害": null, "洪水": null, "津波": null, "備考": null, "FID": 161 }, "geometry": { "type": "Point", "coordinates": [ 135.2295239, 34.72736 ] } },
{ "type": "Feature", "properties": { "F_": null, "区": "灘", "緊急避難場所の利用": "○", "避難所の利用": "○", "名称": "成徳小学校", "住所": "神戸市灘区備後町1-3-1", "電話番号": "078-821-1001", "緯度": 34.7156136, "経度": 135.2422119, "郵便番号": "657-0037", "土砂災害": null, "洪水": null, "津波": null, "備考": null, "FID": 162 }, "geometry": { "type": "Point", "coordinates": [ 135.2422119, 34.715613599999983 ] } },
{ "type": "Feature", "properties": { "F_": null, "区": "灘", "緊急避難場所の利用": "○", "避難所の利用": "○", "名称": "高羽小学校", "住所": "神戸市灘区高羽町3-11-11", "電話番号": "078-841-0541", "緯度": 34.7232671, "経度": 135.239469899999989, "郵便番号": "657-0001", "土砂災害": null, "洪水": null, "津波": null, "備考": null, "FID": 163 }, "geometry": { "type": "Point", "coordinates": [ 135.239469899999989, 34.723267099999987 ] } },
{ "type": "Feature", "properties": { "F_": null, "区": "灘", "緊急避難場所の利用": "○", "避難所の利用": "○", "名称": "西郷小学校", "住所": "神戸市灘区大石東町6-2-1", "電話番号": "078-861-2888", "緯度": 34.7069712, "経度": 135.232752, "郵便番号": "657-0043", "土砂災害": null, "洪水": null, "津波": null, "備考": null, "FID": 164 }, "geometry": { "type": "Point", "coordinates": [ 135.232752, 34.7069712 ] } },
{ "type": "Feature", "properties": { "F_": null, "区": "灘", "緊急避難場所の利用": "○", "避難所の利用": "○", "名称": "六甲小学校", "住所": "神戸市灘区八幡町4-4-1", "電話番号": "078-881-1071", "緯度": 34.7176856, "経度": 135.233384699999988, "郵便番号": "657-0051", "土砂災害": null, "洪水": null, "津波": null, "備考": null, "FID": 165 }, "geometry": { "type": "Point", "coordinates": [ 135.233384699999988, 34.717685599999989 ] } },
{ "type": "Feature", "properties": { "F_": null, "区": "灘", "緊急避難場所の利用": "○", "避難所の利用": "○", "名称": "福住小学校", "住所": "神戸市灘区福住通7-1-1", "電話番号": "078-861-2424", "緯度": 34.7131542, "経度": 135.2184924, "郵便番号": "657-0824", "土砂災害": "△", "洪水": null, "津波": null, "備考": "《土砂災害時》土砂災害警戒区域外（稗田小学校・王子スポーツセンター）へ避難すること。ただし、警戒区域外への避難が困難な方や余裕のない場合は利用可", "FID": 166 }, "geometry": { "type": "Point", "coordinates": [ 135.2184924, 34.7131542 ] } },
{ "type": "Feature", "properties": { "F_": null, "区": "灘", "緊急避難場所の利用": "○", "避難所の利用": "○", "名称": "神戸高校", "住所": "神戸市灘区城の下通1-5-1", "電話番号": "078-861-0434", "緯度": 34.7183517, "経度": 135.2139531, "郵便番号": "657-0804", "土砂災害": null, "洪水": null, "津波": null, "備考": null, "FID": 167 }, "geometry": { "type": "Point", "coordinates": [ 135.2139531, 34.7183517 ] } },
{ "type": "Feature", "properties": { "F_": null, "区": "灘", "緊急避難場所の利用": "○", "避難所の利用": "○", "名称": "王子スポーツセンター", "住所": "神戸市灘区青谷町1-1-1", "電話番号": "078-802-0223", "緯度": 34.7112438, "経度": 135.2127184, "郵便番号": "657-0805", "土砂災害": null, "洪水": null, "津波": null, "備考": null, "FID": 168 }, "geometry": { "type": "Point", "coordinates": [ 135.2127184, 34.711243799999977 ] } },
{ "type": "Feature", "properties": { "F_": null, "区": "灘", "緊急避難場所の利用": "○", "避難所の利用": "○", "名称": "西灘小学校", "住所": "神戸市灘区船寺通3-4-1", "電話番号": "078-861-8851", "緯度": 34.7078003, "経度": 135.2277828, "郵便番号": "657-0824", "土砂災害": null, "洪水": null, "津波": null, "備考": null, "FID": 169 }, "geometry": { "type": "Point", "coordinates": [ 135.2277828, 34.707800299999988 ] } },
{ "type": "Feature", "properties": { "F_": null, "区": "灘", "緊急避難場所の利用": "○", "避難所の利用": "○", "名称": "原田中学校", "住所": "神戸市灘区船寺通2-4-1", "電話番号": "078-861-0431", "緯度": 34.7090114, "経度": 135.228899399999989, "郵便番号": "657-0824", "土砂災害": null, "洪水": null, "津波": null, "備考": null, "FID": 170 }, "geometry": { "type": "Point", "coordinates": [ 135.228899399999989, 34.7090114 ] } },
{ "type": "Feature", "properties": { "F_": null, "区": "灘", "緊急避難場所の利用": "○", "避難所の利用": "○", "名称": "稗田小学校", "住所": "神戸市灘区岸地通4-2-1", "電話番号": "078-871-0721", "緯度": 34.7113389, "経度": 135.2224081, "郵便番号": "657-0832", "土砂災害": null, "洪水": null, "津波": null, "備考": null, "FID": 171 }, "geometry": { "type": "Point", "coordinates": [ 135.2224081, 34.7113389 ] } },
{ "type": "Feature", "properties": { "F_": null, "区": "灘", "緊急避難場所の利用": "○", "避難所の利用": "○", "名称": "美野丘小学校", "住所": "神戸市灘区箕岡通1-3-17", "電話番号": "078-871-1381", "緯度": 34.7230792, "経度": 135.22118, "郵便番号": "657-0812", "土砂災害": null, "洪水": null, "津波": null, "備考": null, "FID": 172 }, "geometry": { "type": "Point", "coordinates": [ 135.22118, 34.7230792 ] } },
{ "type": "Feature", "properties": { "F_": null, "区": "灘", "緊急避難場所の利用": "○", "避難所の利用": "○", "名称": "上野中学校", "住所": "神戸市灘区国玉通1-1-1", "電話番号": "078-871-9681", "緯度": 34.71930199, "経度": 135.222891299999986, "郵便番号": "657-0816", "土砂災害": "△", "洪水": null, "津波": null, "備考": "《土砂災害時》正門が土砂災害警戒区域内にあるので注意、早めに避難すること", "FID": 173 }, "geometry": { "type": "Point", "coordinates": [ 135.222891299999986, 34.719301989999984 ] } },
{ "type": "Feature", "properties": { "F_": null, "区": "灘", "緊急避難場所の利用": "○", "避難所の利用": "○", "名称": "摩耶小学校", "住所": "神戸市灘区畑原通4-1-1", "電話番号": "078-861-3172", "緯度": 34.7157272, "経度": 135.22057190000001, "郵便番号": "657-0822", "土砂災害": "△", "洪水": null, "津波": null, "備考": "《土砂災害時》土砂災害警戒区域外（稗田小学校・上野中学校）へ避難すること、ただし、警戒区域外への避難が困難な方や余裕のない場合は利用可", "FID": 174 }, "geometry": { "type": "Point", "coordinates": [ 135.22057190000001, 34.715727199999989 ] } },
{ "type": "Feature", "properties": { "F_": null, "区": "灘", "緊急避難場所の利用": "○", "避難所の利用": "○", "名称": "灘小学校", "住所": "神戸市灘区千旦通1-5-1", "電話番号": "078-871-0481", "緯度": 34.7132556, "経度": 135.2325461, "郵便番号": "657-0056", "土砂災害": null, "洪水": null, "津波": null, "備考": null, "FID": 175 }, "geometry": { "type": "Point", "coordinates": [ 135.2325461, 34.713255599999982 ] } },
{ "type": "Feature", "properties": { "F_": null, "区": "灘", "緊急避難場所の利用": "○", "避難所の利用": "○", "名称": "六甲山小学校", "住所": "神戸市灘区六甲山町北六甲4512-42", "電話番号": "078-891-0328", "緯度": 34.7573864, "経度": 135.2322536, "郵便番号": "657-0101", "土砂災害": null, "洪水": null, "津波": null, "備考": null, "FID": 176 }, "geometry": { "type": "Point", "coordinates": [ 135.2322536, 34.7573864 ] } },
{ "type": "Feature", "properties": { "F_": null, "区": "灘", "緊急避難場所の利用": "○", "避難所の利用": "○", "名称": "鷹匠中学校", "住所": "神戸市灘区高徳町2-2-19", "電話番号": "078-841-0041", "緯度": 34.7201547, "経度": 135.243853300000012, "郵便番号": "657-0025", "土砂災害": "△", "洪水": null, "津波": null, "備考": "《土砂災害時》土砂災害警戒区域外（高羽小学校）へ避難すること、ただし、警戒区域外への避難が困難な方や余裕のない場合は利用可", "FID": 177 }, "geometry": { "type": "Point", "coordinates": [ 135.243853300000012, 34.7201547 ] } },
{ "type": "Feature", "properties": { "F_": null, "区": "灘", "緊急避難場所の利用": "○", "避難所の利用": "○", "名称": "烏帽子中学校", "住所": "神戸市灘区烏帽子町1-2-1", "電話番号": "078-851-5777", "緯度": 34.710672, "経度": 135.237627300000014, "郵便番号": "657-0042", "土砂災害": null, "洪水": null, "津波": null, "備考": null, "FID": 178 }, "geometry": { "type": "Point", "coordinates": [ 135.237627300000014, 34.71067 ] } },
{ "type": "Feature", "properties": { "F_": null, "区": "灘", "緊急避難場所の利用": "○", "避難所の利用": "○", "名称": "長峰中学校", "住所": "神戸市灘区長峰台2-2-1", "電話番号": "078-861-3781", "緯度": 34.7248011, "経度": 135.2226, "郵便番号": "657-0811", "土砂災害": "△", "洪水": null, "津波": null, "備考": "《土砂災害時》正門が土砂災害警戒区域内にあるので注意、早めに避難すること", "FID": 179 }, "geometry": { "type": "Point", "coordinates": [ 135.2226, 34.7248011 ] } },
{ "type": "Feature", "properties": { "F_": null, "区": "中央", "緊急避難場所の利用": "○", "避難所の利用": "○", "名称": "上筒井小学校", "住所": "神戸市中央区野崎通1-1-2", "電話番号": "078-241-1080", "緯度": 34.7106192, "経度": 135.2113422, "郵便番号": "650-0061", "土砂災害": null, "洪水": null, "津波": null, "備考": null, "FID": 180 }, "geometry": { "type": "Point", "coordinates": [ 135.2113422, 34.7106192 ] } },
{ "type": "Feature", "properties": { "F_": null, "区": "須磨", "緊急避難場所の利用": "○", "避難所の利用": "○", "名称": "竜が台中学校", "住所": "神戸市須磨区竜が台4-1", "電話番号": "078-791-0762", "緯度": 34.6755908, "経度": 135.088222800000011, "郵便番号": "654-0141", "土砂災害": null, "洪水": null, "津波": null, "備考": null, "FID": 181 }, "geometry": { "type": "Point", "coordinates": [ 135.088222800000011, 34.6755908 ] } },
{ "type": "Feature", "properties": { "F_": null, "区": "中央", "緊急避難場所の利用": "○", "避難所の利用": "○", "名称": "筒井台中学校", "住所": "神戸市中央区野崎通1-1-3", "電話番号": "078-241-3201", "緯度": 34.7093111, "経度": 135.2100675, "郵便番号": "657-0071", "土砂災害": null, "洪水": null, "津波": null, "備考": "※耐震改築工事中（平成28年４月工事完了予定（平成27年３月現在））", "FID": 182 }, "geometry": { "type": "Point", "coordinates": [ 135.2100675, 34.709311099999987 ] } },
{ "type": "Feature", "properties": { "F_": null, "区": "須磨", "緊急避難場所の利用": "○", "避難所の利用": "○", "名称": "菅の台小学校", "住所": "神戸市須磨区菅の台4-3-2", "電話番号": "078-791-0233", "緯度": 34.6721939, "経度": 135.0836983, "郵便番号": "654-0143", "土砂災害": "△", "洪水": null, "津波": null, "備考": "《土砂災害時》西門が土砂災害警戒区域付近にあるので注意、正門を利用すること", "FID": 183 }, "geometry": { "type": "Point", "coordinates": [ 135.0836983, 34.6721939 ] } },
{ "type": "Feature", "properties": { "F_": null, "区": "中央", "緊急避難場所の利用": "○", "避難所の利用": "○", "名称": "葺合高校", "住所": "神戸市中央区野崎通1-1-1", "電話番号": "078-291-0771", "緯度": 34.7110108, "経度": 135.2102842, "郵便番号": "657-0054", "土砂災害": null, "洪水": null, "津波": null, "備考": null, "FID": 184 }, "geometry": { "type": "Point", "coordinates": [ 135.2102842, 34.711010799999976 ] } },
{ "type": "Feature", "properties": { "F_": null, "区": "中央", "緊急避難場所の利用": "○", "避難所の利用": "○", "名称": "宮本小学校", "住所": "神戸市中央区宮本通2-1-36", "電話番号": "078-221-1600", "緯度": 34.7067197, "経度": 135.211773099999988, "郵便番号": "657-0063", "土砂災害": null, "洪水": null, "津波": null, "備考": null, "FID": 185 }, "geometry": { "type": "Point", "coordinates": [ 135.211773099999988, 34.706719699999987 ] } },
{ "type": "Feature", "properties": { "F_": null, "区": "須磨", "緊急避難場所の利用": "○", "避難所の利用": "○", "名称": "花谷小学校", "住所": "神戸市須磨区東落合1-4-1", "電話番号": "078-791-8272", "緯度": 34.6800732, "経度": 135.1012968, "郵便番号": "654-0152", "土砂災害": null, "洪水": null, "津波": null, "備考": null, "FID": 186 }, "geometry": { "type": "Point", "coordinates": [ 135.1012968, 34.6800732 ] } },
{ "type": "Feature", "properties": { "F_": null, "区": "中央", "緊急避難場所の利用": "○", "避難所の利用": "○", "名称": "科学技術高校", "住所": "神戸市中央区脇浜町1-4-70", "電話番号": "078-272-9900", "緯度": 34.7043033, "経度": 135.2135256, "郵便番号": "650-0072", "土砂災害": null, "洪水": "×", "津波": null, "備考": "《洪水時》浸水想定区域外の緊急避難場所（宮本小学校、なぎさ小学校、渚中学校）へ避難すること", "FID": 187 }, "geometry": { "type": "Point", "coordinates": [ 135.2135256, 34.7043033 ] } },
{ "type": "Feature", "properties": { "F_": null, "区": "須磨", "緊急避難場所の利用": "○", "避難所の利用": "○", "名称": "東落合中学校", "住所": "神戸市須磨区東落合2-15-1", "電話番号": "078-792-5558", "緯度": 34.6823986, "経度": 135.0994494, "郵便番号": "654-0152", "土砂災害": null, "洪水": null, "津波": null, "備考": null, "FID": 188 }, "geometry": { "type": "Point", "coordinates": [ 135.0994494, 34.6823986 ] } },
{ "type": "Feature", "properties": { "F_": null, "区": "中央", "緊急避難場所の利用": "○", "避難所の利用": "○", "名称": "葺合中学校", "住所": "神戸市中央区熊内町1-4-28", "電話番号": "078-241-0444", "緯度": 34.7068444, "経度": 135.2032542, "郵便番号": "650-0056", "土砂災害": "×", "洪水": null, "津波": null, "備考": "《土砂災害時》土砂災害警戒区域外の緊急避難場所（雲中小学校、中央小学校）へ避難すること", "FID": 189 }, "geometry": { "type": "Point", "coordinates": [ 135.2032542, 34.7068444 ] } },
{ "type": "Feature", "properties": { "F_": null, "区": "中央", "緊急避難場所の利用": "○", "避難所の利用": "○", "名称": "春日野小学校", "住所": "神戸市中央区宮本通7-1-6", "電話番号": "078-231-2461", "緯度": 34.70566147, "経度": 135.206142989999989, "郵便番号": "650-0063", "土砂災害": null, "洪水": "×", "津波": null, "備考": "《洪水時》浸水想定区域外の緊急避難場所（宮本小学校、中央小学校）へ避難すること", "FID": 190 }, "geometry": { "type": "Point", "coordinates": [ 135.206142989999989, 34.70566147 ] } },
{ "type": "Feature", "properties": { "F_": null, "区": "須磨", "緊急避難場所の利用": "○", "避難所の利用": "○", "名称": "西落合小学校", "住所": "神戸市須磨区西落合7-1-3", "電話番号": "078-792-5556", "緯度": 34.6819375, "経度": 135.089233900000011, "郵便番号": "654-0155", "土砂災害": null, "洪水": null, "津波": null, "備考": null, "FID": 191 }, "geometry": { "type": "Point", "coordinates": [ 135.089233900000011, 34.6819375 ] } },
{ "type": "Feature", "properties": { "F_": null, "区": "須磨", "緊急避難場所の利用": "○", "避難所の利用": "○", "名称": "北須磨文化センター", "住所": "神戸市須磨区中落合3-1-2", "電話番号": "078-791-0840", "緯度": 34.6839355, "経度": 135.0954409, "郵便番号": "654-0154", "土砂災害": null, "洪水": null, "津波": null, "備考": null, "FID": 192 }, "geometry": { "type": "Point", "coordinates": [ 135.0954409, 34.683935499999976 ] } },
{ "type": "Feature", "properties": { "F_": null, "区": "中央", "緊急避難場所の利用": "○", "避難所の利用": "○", "名称": "なぎさ小学校", "住所": "神戸市中央区脇浜海岸通2-4-1", "電話番号": "078-252-5611", "緯度": 34.6977428, "経度": 135.2110122, "郵便番号": "650-0073", "土砂災害": null, "洪水": null, "津波": null, "備考": null, "FID": 193 }, "geometry": { "type": "Point", "coordinates": [ 135.2110122, 34.697742799999979 ] } },
{ "type": "Feature", "properties": { "F_": null, "区": "須磨", "緊急避難場所の利用": "○", "避難所の利用": "○", "名称": "西落合中学校", "住所": "神戸市須磨区西落合4-1-1", "電話番号": "078-791-8444", "緯度": 34.6851425, "経度": 135.082456400000012, "郵便番号": "654-0155", "土砂災害": null, "洪水": null, "津波": null, "備考": null, "FID": 194 }, "geometry": { "type": "Point", "coordinates": [ 135.082456400000012, 34.6851425 ] } },
{ "type": "Feature", "properties": { "F_": null, "区": "中央", "緊急避難場所の利用": "○", "避難所の利用": "○", "名称": "渚中学校", "住所": "神戸市中央区脇浜海岸通2-1-1", "電話番号": "078-242-4501", "緯度": 34.7004675, "経度": 135.217569700000013, "郵便番号": "650-0073", "土砂災害": null, "洪水": null, "津波": null, "備考": null, "FID": 195 }, "geometry": { "type": "Point", "coordinates": [ 135.217569700000013, 34.7004675 ] } },
{ "type": "Feature", "properties": { "F_": null, "区": "須磨", "緊急避難場所の利用": "○", "避難所の利用": "○", "名称": "須磨翔風高校", "住所": "神戸市須磨区西落合1-1-5", "電話番号": "078-798-4155", "緯度": 34.6779933, "経度": 135.0887922, "郵便番号": "654-0155", "土砂災害": null, "洪水": null, "津波": null, "備考": null, "FID": 196 }, "geometry": { "type": "Point", "coordinates": [ 135.0887922, 34.6779933 ] } },
{ "type": "Feature", "properties": { "F_": null, "区": "中央", "緊急避難場所の利用": "○", "避難所の利用": "○", "名称": "雲中小学校", "住所": "神戸市中央区熊内町3-1-7", "電話番号": "078-231-3441", "緯度": 34.7059667, "経度": 135.2001544, "郵便番号": "650-0056", "土砂災害": null, "洪水": null, "津波": null, "備考": null, "FID": 197 }, "geometry": { "type": "Point", "coordinates": [ 135.2001544, 34.705966699999983 ] } },
{ "type": "Feature", "properties": { "F_": null, "区": "須磨", "緊急避難場所の利用": "○", "避難所の利用": "○", "名称": "若草小学校", "住所": "神戸市須磨区若草町1-13", "電話番号": "078-743-7311", "緯度": 34.6876362, "経度": 135.1148719, "郵便番号": "654-0122", "土砂災害": null, "洪水": null, "津波": null, "備考": null, "FID": 198 }, "geometry": { "type": "Point", "coordinates": [ 135.1148719, 34.687636199999979 ] } },
{ "type": "Feature", "properties": { "F_": null, "区": "中央", "緊急避難場所の利用": "○", "避難所の利用": "○", "名称": "布引中学校", "住所": "神戸市中央区熊内町6-7-1", "電話番号": "078-241-0010", "緯度": 34.7094081, "経度": 135.1991572, "郵便番号": "650-0056", "土砂災害": "×", "洪水": null, "津波": null, "備考": "《土砂災害時》土砂災害警戒区域外の緊急避難場所（雲中小学校、中央小学校）へ避難すること", "FID": 199 }, "geometry": { "type": "Point", "coordinates": [ 135.1991572, 34.7094081 ] } },
{ "type": "Feature", "properties": { "F_": null, "区": "須磨", "緊急避難場所の利用": "○", "避難所の利用": "○", "名称": "須磨北中学校", "住所": "神戸市須磨区東白川台5-1-1", "電話番号": "078-741-6465", "緯度": 34.6920283, "経度": 135.110209700000013, "郵便番号": "654-0103", "土砂災害": null, "洪水": null, "津波": null, "備考": null, "FID": 200 }, "geometry": { "type": "Point", "coordinates": [ 135.110209700000013, 34.6920283 ] } },
{ "type": "Feature", "properties": { "F_": null, "区": "中央", "緊急避難場所の利用": "○", "避難所の利用": "○", "名称": "中央小学校", "住所": "神戸市中央区神若通7-1-1", "電話番号": "078-231-2421", "緯度": 34.7017422, "経度": 135.199690800000013, "郵便番号": "650-0067", "土砂災害": null, "洪水": null, "津波": null, "備考": null, "FID": 201 }, "geometry": { "type": "Point", "coordinates": [ 135.199690800000013, 34.701742199999977 ] } },
{ "type": "Feature", "properties": { "F_": null, "区": "須磨", "緊急避難場所の利用": "○", "避難所の利用": "○", "名称": "東落合小学校", "住所": "神戸市須磨区東落合2-18-1", "電話番号": "078-793-1844", "緯度": 34.6852289, "経度": 135.1009689, "郵便番号": "654-0152", "土砂災害": null, "洪水": null, "津波": null, "備考": null, "FID": 202 }, "geometry": { "type": "Point", "coordinates": [ 135.1009689, 34.6852289 ] } },
{ "type": "Feature", "properties": { "F_": null, "区": "中央", "緊急避難場所の利用": "○", "避難所の利用": "○", "名称": "コミスタこうべ（生涯学習支援センター）", "住所": "神戸市中央区吾妻通4-1-6", "電話番号": "078-251-4731", "緯度": 34.6982261, "経度": 135.20463190000001, "郵便番号": "650-0076", "土砂災害": null, "洪水": null, "津波": null, "備考": null, "FID": 203 }, "geometry": { "type": "Point", "coordinates": [ 135.20463190000001, 34.698226099999971 ] } },
{ "type": "Feature", "properties": { "F_": null, "区": "須磨", "緊急避難場所の利用": "○", "避難所の利用": "○", "名称": "松尾小学校", "住所": "神戸市須磨区北落合2-13-1", "電話番号": "078-791-8422", "緯度": 34.6866175, "経度": 135.0917225, "郵便番号": "654-0151", "土砂災害": "△", "洪水": null, "津波": null, "備考": "《土砂災害時》正門が土砂災害警戒区域内にあるので注意、東門を利用すること", "FID": 204 }, "geometry": { "type": "Point", "coordinates": [ 135.0917225, 34.6866175 ] } },
{ "type": "Feature", "properties": { "F_": null, "区": "中央", "緊急避難場所の利用": "○", "避難所の利用": "○", "名称": "葺合公民館", "住所": "神戸市中央区真砂通2-1-1", "電話番号": "078-232-4026", "緯度": 34.694983, "経度": 135.204535, "郵便番号": "651-0081", "土砂災害": null, "洪水": null, "津波": null, "備考": null, "FID": 205 }, "geometry": { "type": "Point", "coordinates": [ 135.204535, 34.694983 ] } },
{ "type": "Feature", "properties": { "F_": null, "区": "須磨", "緊急避難場所の利用": "○", "避難所の利用": "○", "名称": "神の谷小学校", "住所": "神戸市須磨区神の谷5-1-1", "電話番号": "078-791-8277", "緯度": 34.6885015, "経度": 135.0854611, "郵便番号": "654-0162", "土砂災害": null, "洪水": null, "津波": null, "備考": null, "FID": 206 }, "geometry": { "type": "Point", "coordinates": [ 135.0854611, 34.6885015 ] } },
{ "type": "Feature", "properties": { "F_": null, "区": "中央", "緊急避難場所の利用": "○", "避難所の利用": "○", "名称": "勤労会館", "住所": "神戸市中央区雲井通5-1-2", "電話番号": "078-232-1881", "緯度": 34.6949431, "経度": 135.19738, "郵便番号": "650-0096", "土砂災害": null, "洪水": null, "津波": null, "備考": null, "FID": 207 }, "geometry": { "type": "Point", "coordinates": [ 135.19738, 34.6949431 ] } },
{ "type": "Feature", "properties": { "F_": null, "区": "須磨", "緊急避難場所の利用": "○", "避難所の利用": "○", "名称": "白川小学校", "住所": "神戸市須磨区白川台7-3-2", "電話番号": "078-792-2619", "緯度": 34.6960794, "経度": 135.1006022, "郵便番号": "654-0103", "土砂災害": null, "洪水": null, "津波": null, "備考": null, "FID": 208 }, "geometry": { "type": "Point", "coordinates": [ 135.1006022, 34.6960794 ] } },
{ "type": "Feature", "properties": { "F_": null, "区": "中央", "緊急避難場所の利用": "○", "避難所の利用": "○", "名称": "こうべ市民福祉交流センター", "住所": "神戸市中央区磯上通3-1-32", "電話番号": "078-271-5314", "緯度": 34.6928637, "経度": 135.201767600000011, "郵便番号": "650-0084", "土砂災害": null, "洪水": null, "津波": null, "備考": null, "FID": 209 }, "geometry": { "type": "Point", "coordinates": [ 135.201767600000011, 34.6928637 ] } },
{ "type": "Feature", "properties": { "F_": null, "区": "須磨", "緊急避難場所の利用": "○", "避難所の利用": "○", "名称": "白川台中学校", "住所": "神戸市須磨区白川台1-25-2", "電話番号": "078-792-5711", "緯度": 34.6927503, "経度": 135.0964414, "郵便番号": "654-0103", "土砂災害": null, "洪水": null, "津波": null, "備考": null, "FID": 210 }, "geometry": { "type": "Point", "coordinates": [ 135.0964414, 34.6927503 ] } },
{ "type": "Feature", "properties": { "F_": null, "区": "中央", "緊急避難場所の利用": "○", "避難所の利用": "○", "名称": "こうべ小学校", "住所": "神戸市中央区中山手通4-23-2", "電話番号": "078-221-2539", "緯度": 34.6935569, "経度": 135.18247, "郵便番号": "650-0004", "土砂災害": null, "洪水": null, "津波": null, "備考": null, "FID": 211 }, "geometry": { "type": "Point", "coordinates": [ 135.18247, 34.6935569 ] } },
{ "type": "Feature", "properties": { "F_": null, "区": "垂水", "緊急避難場所の利用": "○", "避難所の利用": "○", "名称": "塩屋小学校", "住所": "神戸市垂水区塩屋町3-18-1", "電話番号": "078-751-4400", "緯度": 34.6379922, "経度": 135.0813161, "郵便番号": "655-0872", "土砂災害": null, "洪水": null, "津波": null, "備考": null, "FID": 212 }, "geometry": { "type": "Point", "coordinates": [ 135.0813161, 34.6379922 ] } },
{ "type": "Feature", "properties": { "F_": null, "区": "中央", "緊急避難場所の利用": "○", "避難所の利用": "○", "名称": "海外移住と文化の交流センター", "住所": "神戸市中央区山本通3-19-8", "電話番号": "078-272-2362", "緯度": 34.6974231, "経度": 135.1846367, "郵便番号": "650-0008", "土砂災害": "×", "洪水": null, "津波": null, "備考": "《土砂災害時》土砂災害警戒区域外の緊急避難場所（こうべ小学校）へ避難すること", "FID": 213 }, "geometry": { "type": "Point", "coordinates": [ 135.1846367, 34.6974231 ] } },
{ "type": "Feature", "properties": { "F_": null, "区": "垂水", "緊急避難場所の利用": "○", "避難所の利用": "○", "名称": "塩屋中学校", "住所": "神戸市垂水区塩屋町字大谷", "電話番号": "078-753-2271", "緯度": 34.6439331, "経度": 135.0771217, "郵便番号": "655-0872", "土砂災害": null, "洪水": null, "津波": null, "備考": null, "FID": 214 }, "geometry": { "type": "Point", "coordinates": [ 135.0771217, 34.643933099999984 ] } },
{ "type": "Feature", "properties": { "F_": null, "区": "垂水", "緊急避難場所の利用": "○", "避難所の利用": "○", "名称": "塩屋北小学校", "住所": "神戸市垂水区塩屋北町4-10-1", "電話番号": "078-752-7575", "緯度": 34.6470275, "経度": 135.0906539, "郵便番号": "655-0863", "土砂災害": null, "洪水": null, "津波": null, "備考": null, "FID": 215 }, "geometry": { "type": "Point", "coordinates": [ 135.0906539, 34.6470275 ] } },
{ "type": "Feature", "properties": { "F_": null, "区": "中央", "緊急避難場所の利用": "○", "避難所の利用": "○", "名称": "神戸生田中学校", "住所": "神戸市中央区北長狭通4-10-1", "電話番号": "078-334-1850", "緯度": 34.6899906, "経度": 135.1856644, "郵便番号": "650-0012", "土砂災害": null, "洪水": null, "津波": null, "備考": null, "FID": 216 }, "geometry": { "type": "Point", "coordinates": [ 135.1856644, 34.6899906 ] } },
{ "type": "Feature", "properties": { "F_": null, "区": "垂水", "緊急避難場所の利用": "○", "避難所の利用": "○", "名称": "塩屋台自治会館", "住所": "神戸市垂水区塩屋台1-21", "電話番号": "-", "緯度": 34.6418375, "経度": 135.0835281, "郵便番号": "655-0864", "土砂災害": null, "洪水": null, "津波": null, "備考": null, "FID": 217 }, "geometry": { "type": "Point", "coordinates": [ 135.0835281, 34.6418375 ] } },
{ "type": "Feature", "properties": { "F_": null, "区": "中央", "緊急避難場所の利用": "○", "避難所の利用": "○", "名称": "山の手小学校", "住所": "神戸市中央区中山手通7-31-1", "電話番号": "078-341-8911", "緯度": 34.6906489, "経度": 135.1757292, "郵便番号": "650-0004", "土砂災害": null, "洪水": null, "津波": null, "備考": null, "FID": 218 }, "geometry": { "type": "Point", "coordinates": [ 135.1757292, 34.6906489 ] } },
{ "type": "Feature", "properties": { "F_": null, "区": "垂水", "緊急避難場所の利用": "○", "避難所の利用": "○", "名称": "下畑台小学校", "住所": "神戸市垂水区桃山台3-20", "電話番号": "078-752-6780", "緯度": 34.6560514, "経度": 135.0830569, "郵便番号": "655-0854", "土砂災害": null, "洪水": null, "津波": null, "備考": null, "FID": 219 }, "geometry": { "type": "Point", "coordinates": [ 135.0830569, 34.65605140000001 ] } },
{ "type": "Feature", "properties": { "F_": null, "区": "中央", "緊急避難場所の利用": "○", "避難所の利用": "○", "名称": "中央図書館", "住所": "神戸市中央区楠町7-2-1", "電話番号": "078-371-3301", "緯度": 34.6856249, "経度": 135.174149199999988, "郵便番号": "650-0017", "土砂災害": null, "洪水": null, "津波": null, "備考": null, "FID": 220 }, "geometry": { "type": "Point", "coordinates": [ 135.174149199999988, 34.6856249 ] } },
{ "type": "Feature", "properties": { "F_": null, "区": "垂水", "緊急避難場所の利用": "○", "避難所の利用": "○", "名称": "桃山台中学校", "住所": "神戸市垂水区桃山台4-8", "電話番号": "078-752-1201", "緯度": 34.6579178, "経度": 135.0797656, "郵便番号": "655-0854", "土砂災害": null, "洪水": null, "津波": null, "備考": null, "FID": 221 }, "geometry": { "type": "Point", "coordinates": [ 135.0797656, 34.6579178 ] } },
{ "type": "Feature", "properties": { "F_": null, "区": "中央", "緊急避難場所の利用": "○", "避難所の利用": "○", "名称": "湊翔楠中学校", "住所": "神戸市中央区楠町4-2-5", "電話番号": "078-351-2152", "緯度": 34.6839972, "経度": 135.1716466, "郵便番号": "650-0017", "土砂災害": null, "洪水": null, "津波": null, "備考": null, "FID": 222 }, "geometry": { "type": "Point", "coordinates": [ 135.1716466, 34.6839972 ] } },
{ "type": "Feature", "properties": { "F_": null, "区": "垂水", "緊急避難場所の利用": "○", "避難所の利用": "○", "名称": "下畑公会堂", "住所": "神戸市垂水区下畑町字谷川2120", "電話番号": "-", "緯度": 34.6443975, "経度": 135.0818079, "郵便番号": "655-0861", "土砂災害": null, "洪水": null, "津波": null, "備考": null, "FID": 223 }, "geometry": { "type": "Point", "coordinates": [ 135.0818079, 34.6443975 ] } },
{ "type": "Feature", "properties": { "F_": null, "区": "中央", "緊急避難場所の利用": "○", "避難所の利用": "○", "名称": "中央体育館", "住所": "神戸市中央区楠町4-1-1", "電話番号": "078-341-7971", "緯度": 34.6827886, "経度": 135.1744294, "郵便番号": "650-0017", "土砂災害": null, "洪水": null, "津波": null, "備考": null, "FID": 224 }, "geometry": { "type": "Point", "coordinates": [ 135.1744294, 34.6827886 ] } },
{ "type": "Feature", "properties": { "F_": null, "区": "垂水", "緊急避難場所の利用": "○", "避難所の利用": "○", "名称": "つつじが丘小学校", "住所": "神戸市垂水区つつじが丘3-1385-79", "電話番号": "078-709-7751", "緯度": 34.6574376, "経度": 135.0786778, "郵便番号": "655-0853", "土砂災害": null, "洪水": null, "津波": null, "備考": null, "FID": 225 }, "geometry": { "type": "Point", "coordinates": [ 135.0786778, 34.657437599999987 ] } },
{ "type": "Feature", "properties": { "F_": null, "区": "中央", "緊急避難場所の利用": "○", "避難所の利用": "○", "名称": "湊小学校", "住所": "神戸市中央区東川崎町1-4-1", "電話番号": "078-360-1200", "緯度": 34.6768975, "経度": 135.180851100000012, "郵便番号": "650-0044", "土砂災害": null, "洪水": null, "津波": "×", "備考": "《津波時》中央幹線（多聞通）（高速神戸駅）より北側へ避難すること", "FID": 226 }, "geometry": { "type": "Point", "coordinates": [ 135.180851100000012, 34.676897499999974 ] } },
{ "type": "Feature", "properties": { "F_": null, "区": "垂水", "緊急避難場所の利用": "○", "避難所の利用": "○", "名称": "福田小学校", "住所": "神戸市垂水区乙木3-3-1", "電話番号": "078-753-3515", "緯度": 34.6411637, "経度": 135.0665735, "郵便番号": "655-0882", "土砂災害": null, "洪水": null, "津波": null, "備考": null, "FID": 227 }, "geometry": { "type": "Point", "coordinates": [ 135.0665735, 34.641163700000014 ] } },
{ "type": "Feature", "properties": { "F_": null, "区": "中央", "緊急避難場所の利用": "○", "避難所の利用": "○", "名称": "産業振興センター", "住所": "神戸市中央区東川崎1-8-4", "電話番号": "078-360-3214", "緯度": 34.6806028, "経度": 135.181795599999987, "郵便番号": "650-0044", "土砂災害": null, "洪水": null, "津波": "×", "備考": "《津波時》中央幹線（多聞通）（高速神戸駅）より北側へ避難すること", "FID": 228 }, "geometry": { "type": "Point", "coordinates": [ 135.181795599999987, 34.6806028 ] } },
{ "type": "Feature", "properties": { "F_": null, "区": "垂水", "緊急避難場所の利用": "○", "避難所の利用": "○", "名称": "東垂水小学校", "住所": "神戸市垂水区王居殿2-5-25", "電話番号": "078-751-2623", "緯度": 34.6348258, "経度": 135.071186399999988, "郵便番号": "655-0883", "土砂災害": null, "洪水": null, "津波": null, "備考": null, "FID": 229 }, "geometry": { "type": "Point", "coordinates": [ 135.071186399999988, 34.6348258 ] } },
{ "type": "Feature", "properties": { "F_": null, "区": "中央", "緊急避難場所の利用": "○", "避難所の利用": "○", "名称": "こうべまちづくり会館", "住所": "神戸市中央区元町通4-2-14", "電話番号": "078-361-4523", "緯度": 34.6860973, "経度": 135.1829065, "郵便番号": "650-0022", "土砂災害": null, "洪水": null, "津波": "×", "備考": "《津波時》山手幹線より北側へ避難すること", "FID": 230 }, "geometry": { "type": "Point", "coordinates": [ 135.1829065, 34.686097299999986 ] } },
{ "type": "Feature", "properties": { "F_": null, "区": "垂水", "緊急避難場所の利用": "○", "避難所の利用": null, "名称": "視覚特別支援学校", "住所": "神戸市垂水区城が山4-2-1", "電話番号": "078-751-3291", "緯度": 34.633196, "経度": 135.0692837, "郵便番号": "655-0884", "土砂災害": null, "洪水": null, "津波": null, "備考": null, "FID": 231 }, "geometry": { "type": "Point", "coordinates": [ 135.0692837, 34.633196 ] } },
{ "type": "Feature", "properties": { "F_": null, "区": "中央", "緊急避難場所の利用": "○", "避難所の利用": "○", "名称": "港島小学校", "住所": "神戸市中央区港島中町3-2-3", "電話番号": "078-302-1661", "緯度": 34.6691156, "経度": 135.212265300000013, "郵便番号": "650-0046", "土砂災害": null, "洪水": null, "津波": null, "備考": null, "FID": 232 }, "geometry": { "type": "Point", "coordinates": [ 135.212265300000013, 34.6691156 ] } },
{ "type": "Feature", "properties": { "F_": null, "区": "垂水", "緊急避難場所の利用": "○", "避難所の利用": "○", "名称": "乙木小学校", "住所": "神戸市垂水区美山台2-1-1", "電話番号": "078-752-4205", "緯度": 34.6403306, "経度": 135.070961399999987, "郵便番号": "655-0874", "土砂災害": null, "洪水": null, "津波": null, "備考": null, "FID": 233 }, "geometry": { "type": "Point", "coordinates": [ 135.070961399999987, 34.6403306 ] } },
{ "type": "Feature", "properties": { "F_": null, "区": "中央", "緊急避難場所の利用": "○", "避難所の利用": "○", "名称": "港島中学校", "住所": "神戸市中央区港島中町3-2-2", "電話番号": "078-302-1771", "緯度": 34.6696569, "経度": 135.2140986, "郵便番号": "650-0046", "土砂災害": null, "洪水": null, "津波": null, "備考": null, "FID": 234 }, "geometry": { "type": "Point", "coordinates": [ 135.2140986, 34.6696569 ] } },
{ "type": "Feature", "properties": { "F_": null, "区": "垂水", "緊急避難場所の利用": "○", "避難所の利用": "○", "名称": "垂水東中学校", "住所": "神戸市垂水区青山台3-4-1", "電話番号": "078-751-6139", "緯度": 34.6409722, "経度": 135.0721917, "郵便番号": "655-0873", "土砂災害": null, "洪水": null, "津波": null, "備考": null, "FID": 235 }, "geometry": { "type": "Point", "coordinates": [ 135.0721917, 34.6409722 ] } },
{ "type": "Feature", "properties": { "F_": null, "区": "中央", "緊急避難場所の利用": "○", "避難所の利用": "○", "名称": "旧みなとじま会館", "住所": "神戸市中央区港島中町1-4-2", "電話番号": "078-322-5095", "緯度": 34.6733579, "経度": 135.2093635, "郵便番号": "650-0046", "土砂災害": null, "洪水": null, "津波": null, "備考": null, "FID": 236 }, "geometry": { "type": "Point", "coordinates": [ 135.2093635, 34.6733579 ] } },
{ "type": "Feature", "properties": { "F_": null, "区": "垂水", "緊急避難場所の利用": "○", "避難所の利用": "○", "名称": "東垂水公民館", "住所": "神戸市垂水区東垂水1-1-1", "電話番号": "078-753-5025", "緯度": 34.6368394, "経度": 135.0684339, "郵便番号": "655-0861", "土砂災害": null, "洪水": null, "津波": null, "備考": null, "FID": 237 }, "geometry": { "type": "Point", "coordinates": [ 135.0684339, 34.636839399999985 ] } },
{ "type": "Feature", "properties": { "F_": null, "区": "中央", "緊急避難場所の利用": "○", "避難所の利用": "○", "名称": "神戸国際展示場", "住所": "神戸市中央区港島中町6-11-1", "電話番号": "078-302-1020", "緯度": 34.66373, "経度": 135.2126072, "郵便番号": "650-0046", "土砂災害": null, "洪水": null, "津波": null, "備考": null, "FID": 238 }, "geometry": { "type": "Point", "coordinates": [ 135.2126072, 34.66373 ] } },
{ "type": "Feature", "properties": { "F_": null, "区": "垂水", "緊急避難場所の利用": "○", "避難所の利用": "○", "名称": "名谷小学校", "住所": "神戸市垂水区名谷町1896", "電話番号": "078-707-2481", "緯度": 34.6633169, "経度": 135.070985799999988, "郵便番号": "655-0852", "土砂災害": null, "洪水": null, "津波": null, "備考": null, "FID": 239 }, "geometry": { "type": "Point", "coordinates": [ 135.070985799999988, 34.6633169 ] } },
{ "type": "Feature", "properties": { "F_": null, "区": "中央", "緊急避難場所の利用": "○", "避難所の利用": "○", "名称": "ワールド記念ホール", "住所": "神戸市中央区港島中町6-12-2", "電話番号": "078-302-8781", "緯度": 34.6639883, "経度": 135.2101714, "郵便番号": "650-0046", "土砂災害": null, "洪水": null, "津波": null, "備考": null, "FID": 240 }, "geometry": { "type": "Point", "coordinates": [ 135.2101714, 34.663988299999978 ] } },
{ "type": "Feature", "properties": { "F_": null, "区": "垂水", "緊急避難場所の利用": "○", "避難所の利用": "○", "名称": "福田中学校", "住所": "神戸市垂水区名谷町字猿倉254", "電話番号": "078-708-1670", "緯度": 34.6515827, "経度": 135.0605674, "郵便番号": "655-0852", "土砂災害": "△", "洪水": null, "津波": null, "備考": "《土砂災害時》武道場・体育館は使用できません", "FID": 241 }, "geometry": { "type": "Point", "coordinates": [ 135.0605674, 34.6515827 ] } },
{ "type": "Feature", "properties": { "F_": null, "区": "中央", "緊急避難場所の利用": "○", "避難所の利用": "○", "名称": "ポートアイランドスポーツセンター", "住所": "神戸市中央区港島中町6-12-1", "電話番号": "078-302-1031", "緯度": 34.6631078, "経度": 135.210735, "郵便番号": "650-0046", "土砂災害": null, "洪水": null, "津波": null, "備考": null, "FID": 242 }, "geometry": { "type": "Point", "coordinates": [ 135.210735, 34.6631078 ] } },
{ "type": "Feature", "properties": { "F_": null, "区": "垂水", "緊急避難場所の利用": "○", "避難所の利用": "○", "名称": "高丸小学校", "住所": "神戸市垂水区大町2-6-9", "電話番号": "078-707-8877", "緯度": 34.6381384, "経度": 135.0613262, "郵便番号": "655-0014", "土砂災害": null, "洪水": null, "津波": null, "備考": null, "FID": 243 }, "geometry": { "type": "Point", "coordinates": [ 135.0613262, 34.638138399999988 ] } },
{ "type": "Feature", "properties": { "F_": null, "区": "中央", "緊急避難場所の利用": "○", "避難所の利用": "○", "名称": "バンドー神戸青少年科学館", "住所": "神戸市中央区港島中町7-7-6", "電話番号": "078-302-5177", "緯度": 34.6659964, "経度": 135.218284399999987, "郵便番号": "650-0046", "土砂災害": null, "洪水": null, "津波": null, "備考": null, "FID": 244 }, "geometry": { "type": "Point", "coordinates": [ 135.218284399999987, 34.665996399999976 ] } },
{ "type": "Feature", "properties": { "F_": null, "区": "垂水", "緊急避難場所の利用": "○", "避難所の利用": "○", "名称": "千鳥が丘小学校", "住所": "神戸市垂水区千鳥が丘3-10-37", "電話番号": "078-709-1655", "緯度": 34.6433439, "経度": 135.0581761, "郵便番号": "655-0011", "土砂災害": null, "洪水": null, "津波": null, "備考": null, "FID": 245 }, "geometry": { "type": "Point", "coordinates": [ 135.0581761, 34.6433439 ] } },
{ "type": "Feature", "properties": { "F_": null, "区": "中央", "緊急避難場所の利用": "○", "避難所の利用": "○", "名称": "神戸学院大学", "住所": "神戸市中央区港島1-1-3", "電話番号": "078-974-1551", "緯度": 34.6694625, "経度": 135.2039939, "郵便番号": "650-0045", "土砂災害": null, "洪水": null, "津波": null, "備考": null, "FID": 246 }, "geometry": { "type": "Point", "coordinates": [ 135.2039939, 34.6694625 ] } },
{ "type": "Feature", "properties": { "F_": null, "区": "垂水", "緊急避難場所の利用": "○", "避難所の利用": "○", "名称": "垂水小学校", "住所": "神戸市垂水区日向2-4-6", "電話番号": "078-707-6006", "緯度": 34.6315758, "経度": 135.0558767, "郵便番号": "655-0883", "土砂災害": null, "洪水": null, "津波": null, "備考": null, "FID": 247 }, "geometry": { "type": "Point", "coordinates": [ 135.0558767, 34.6315758 ] } },
{ "type": "Feature", "properties": { "F_": null, "区": "兵庫", "緊急避難場所の利用": "○", "避難所の利用": "○", "名称": "神戸祇園小学校 (「祇」は「ネ」偏に「氏」)", "住所": "神戸市兵庫区下三条町11-1", "電話番号": "078-511-2600", "緯度": 34.688572, "経度": 135.166266, "郵便番号": "652-0014", "土砂災害": null, "洪水": null, "津波": null, "備考": null, "FID": 248 }, "geometry": { "type": "Point", "coordinates": [ 135.166266, 34.688572 ] } },
{ "type": "Feature", "properties": { "F_": null, "区": "垂水", "緊急避難場所の利用": "○", "避難所の利用": "○", "名称": "垂水年金会館", "住所": "神戸市垂水区平磯1-2-5", "電話番号": "078-752-4181", "緯度": 34.6280792, "経度": 135.0590125, "郵便番号": "655-0882", "土砂災害": null, "洪水": null, "津波": null, "備考": null, "FID": 249 }, "geometry": { "type": "Point", "coordinates": [ 135.0590125, 34.628079199999988 ] } },
{ "type": "Feature", "properties": { "F_": null, "区": "兵庫", "緊急避難場所の利用": "○", "避難所の利用": "○", "名称": "建設局中央水環境センター鈴蘭台処理場", "住所": "神戸市兵庫区烏原町字譲原", "電話番号": "078-521-0020", "緯度": 34.6984246, "経度": 135.1482163, "郵便番号": "652-0001", "土砂災害": "×", "洪水": null, "津波": null, "備考": "《土砂災害時》土砂災害警戒区域外（神戸?園小学校）へ避難すること", "FID": 250 }, "geometry": { "type": "Point", "coordinates": [ 135.1482163, 34.698424599999989 ] } },
{ "type": "Feature", "properties": { "F_": null, "区": "垂水", "緊急避難場所の利用": "○", "避難所の利用": "○", "名称": "垂水体育館", "住所": "神戸市垂水区旭ヶ丘2-1-22", "電話番号": "078-709-6262", "緯度": 34.6329709, "経度": 135.0513052, "郵便番号": "655-0883", "土砂災害": null, "洪水": null, "津波": null, "備考": null, "FID": 251 }, "geometry": { "type": "Point", "coordinates": [ 135.0513052, 34.6329709 ] } },
{ "type": "Feature", "properties": { "F_": null, "区": "兵庫", "緊急避難場所の利用": "○", "避難所の利用": "○", "名称": "友生支援学校", "住所": "神戸市兵庫区夢野町1-1-1", "電話番号": "078-576-6120", "緯度": 34.6862663, "経度": 135.160350200000011, "郵便番号": "652-0063", "土砂災害": null, "洪水": null, "津波": null, "備考": null, "FID": 252 }, "geometry": { "type": "Point", "coordinates": [ 135.160350200000011, 34.686266299999986 ] } },
{ "type": "Feature", "properties": { "F_": null, "区": "垂水", "緊急避難場所の利用": "○", "避難所の利用": "○", "名称": "霞ヶ丘小学校", "住所": "神戸市垂水区霞ヶ丘4-6-16", "電話番号": "078-706-0156", "緯度": 34.63337, "経度": 135.0427583, "郵便番号": "655-0039", "土砂災害": null, "洪水": null, "津波": null, "備考": null, "FID": 253 }, "geometry": { "type": "Point", "coordinates": [ 135.0427583, 34.63337 ] } },
{ "type": "Feature", "properties": { "F_": null, "区": "兵庫", "緊急避難場所の利用": "○", "避難所の利用": "○", "名称": "夢野中学校", "住所": "神戸市兵庫区鵯越町10-1", "電話番号": "078-511-5555", "緯度": 34.6848186, "経度": 135.1535503, "郵便番号": "652-0052", "土砂災害": null, "洪水": null, "津波": null, "備考": null, "FID": 254 }, "geometry": { "type": "Point", "coordinates": [ 135.1535503, 34.684818599999971 ] } },
{ "type": "Feature", "properties": { "F_": null, "区": "垂水", "緊急避難場所の利用": "○", "避難所の利用": "○", "名称": "歌敷山中学校", "住所": "神戸市垂水区歌敷山2-4-1", "電話番号": "078-707-8864", "緯度": 34.6363944, "経度": 135.041261100000014, "郵便番号": "655-0037", "土砂災害": null, "洪水": null, "津波": null, "備考": null, "FID": 255 }, "geometry": { "type": "Point", "coordinates": [ 135.041261100000014, 34.6363944 ] } },
{ "type": "Feature", "properties": { "F_": null, "区": "兵庫", "緊急避難場所の利用": "○", "避難所の利用": null, "名称": "夢野こどもホーム（1階地域交流スペース）", "住所": "神戸市兵庫区夢野町4-3-13", "電話番号": "078-511-3454", "緯度": 34.6835817, "経度": 135.1562126, "郵便番号": "642-0063", "土砂災害": null, "洪水": null, "津波": null, "備考": null, "FID": 256 }, "geometry": { "type": "Point", "coordinates": [ 135.1562126, 34.6835817 ] } },
{ "type": "Feature", "properties": { "F_": null, "区": "兵庫", "緊急避難場所の利用": "○", "避難所の利用": "○", "名称": "夢野の丘小学校", "住所": "神戸市兵庫区東山町4-20", "電話番号": "078-521-7340", "緯度": 34.6816692, "経度": 135.1605583, "郵便番号": "652-0823", "土砂災害": null, "洪水": null, "津波": null, "備考": null, "FID": 257 }, "geometry": { "type": "Point", "coordinates": [ 135.1605583, 34.6816692 ] } },
{ "type": "Feature", "properties": { "F_": null, "区": "垂水", "緊急避難場所の利用": "○", "避難所の利用": "○", "名称": "東舞子小学校", "住所": "神戸市垂水区舞子台4-10-1", "電話番号": "078-782-2712", "緯度": 34.6393497, "経度": 135.0364975, "郵便番号": "655-0046", "土砂災害": null, "洪水": null, "津波": null, "備考": null, "FID": 258 }, "geometry": { "type": "Point", "coordinates": [ 135.0364975, 34.639349699999983 ] } },
{ "type": "Feature", "properties": { "F_": null, "区": "兵庫", "緊急避難場所の利用": "○", "避難所の利用": "○", "名称": "会下山小学校", "住所": "神戸市兵庫区上沢通1-3-26", "電話番号": "078-577-1501", "緯度": 34.6792201, "経度": 135.1652133, "郵便番号": "652-0043", "土砂災害": null, "洪水": null, "津波": null, "備考": null, "FID": 259 }, "geometry": { "type": "Point", "coordinates": [ 135.1652133, 34.679220099999988 ] } },
{ "type": "Feature", "properties": { "F_": null, "区": "垂水", "緊急避難場所の利用": "○", "避難所の利用": "○", "名称": "舞子小学校", "住所": "神戸市垂水区西舞子4-7-43", "電話番号": "078-782-2332", "緯度": 34.6437937, "経度": 135.0303701, "郵便番号": "655-0048", "土砂災害": null, "洪水": null, "津波": null, "備考": null, "FID": 260 }, "geometry": { "type": "Point", "coordinates": [ 135.0303701, 34.6437937 ] } },
{ "type": "Feature", "properties": { "F_": null, "区": "垂水", "緊急避難場所の利用": "○", "避難所の利用": "○", "名称": "西舞子小学校", "住所": "神戸市垂水区狩口台3-1-2", "電話番号": "078-781-0004", "緯度": 34.6497317, "経度": 135.0307367, "郵便番号": "655-0049", "土砂災害": null, "洪水": null, "津波": null, "備考": null, "FID": 261 }, "geometry": { "type": "Point", "coordinates": [ 135.0307367, 34.6497317 ] } },
{ "type": "Feature", "properties": { "F_": null, "区": "兵庫", "緊急避難場所の利用": "○", "避難所の利用": "○", "名称": "湊川中学校（楠高校）", "住所": "神戸市兵庫区松本通1-1-1", "電話番号": "078-521-4874", "緯度": 34.6799525, "経度": 135.164130300000011, "郵便番号": "652-0045", "土砂災害": null, "洪水": null, "津波": null, "備考": null, "FID": 262 }, "geometry": { "type": "Point", "coordinates": [ 135.164130300000011, 34.6799525 ] } },
{ "type": "Feature", "properties": { "F_": null, "区": "垂水", "緊急避難場所の利用": "○", "避難所の利用": "○", "名称": "舞子中学校", "住所": "神戸市垂水区狩口台3-1-1", "電話番号": "078-781-0001", "緯度": 34.649665, "経度": 135.029806400000012, "郵便番号": "655-0049", "土砂災害": "△", "洪水": null, "津波": null, "備考": "《土砂災害時》格技室・体育館は使用できません", "FID": 263 }, "geometry": { "type": "Point", "coordinates": [ 135.029806400000012, 34.649665 ] } },
{ "type": "Feature", "properties": { "F_": null, "区": "兵庫", "緊急避難場所の利用": "○", "避難所の利用": "○", "名称": "神港高校", "住所": "神戸市兵庫区会下山町3-16-1", "電話番号": "078-579-2000", "緯度": 34.6944678, "経度": 135.1830617, "郵便番号": "652-0043", "土砂災害": null, "洪水": null, "津波": null, "備考": null, "FID": 264 }, "geometry": { "type": "Point", "coordinates": [ 135.1830617, 34.694467799999977 ] } },
{ "type": "Feature", "properties": { "F_": null, "区": "垂水", "緊急避難場所の利用": "○", "避難所の利用": "○", "名称": "神陵台小学校", "住所": "神戸市垂水区神陵台3-1-1", "電話番号": "078-781-3843", "緯度": 34.6598917, "経度": 135.0340639, "郵便番号": "655-0041", "土砂災害": null, "洪水": null, "津波": null, "備考": null, "FID": 265 }, "geometry": { "type": "Point", "coordinates": [ 135.0340639, 34.6598917 ] } },
{ "type": "Feature", "properties": { "F_": null, "区": "兵庫", "緊急避難場所の利用": "○", "避難所の利用": "○", "名称": "兵庫大開小学校", "住所": "神戸市兵庫区大開通4-1-39", "電話番号": "078-575-4773", "緯度": 34.67367, "経度": 135.1663192, "郵便番号": "652-0803", "土砂災害": null, "洪水": null, "津波": null, "備考": null, "FID": 266 }, "geometry": { "type": "Point", "coordinates": [ 135.1663192, 34.67367 ] } },
{ "type": "Feature", "properties": { "F_": null, "区": "垂水", "緊急避難場所の利用": "○", "避難所の利用": "○", "名称": "神陵台中学校", "住所": "神戸市垂水区神陵台3-1-2", "電話番号": "078-781-0700", "緯度": 34.6601417, "経度": 135.0332281, "郵便番号": "655-0041", "土砂災害": null, "洪水": null, "津波": null, "備考": null, "FID": 267 }, "geometry": { "type": "Point", "coordinates": [ 135.0332281, 34.660141699999983 ] } },
{ "type": "Feature", "properties": { "F_": null, "区": "兵庫", "緊急避難場所の利用": "○", "避難所の利用": "○", "名称": "水木小学絞", "住所": "神戸市兵庫区水木通9-1-8", "電話番号": "078-575-8360", "緯度": 34.6703563, "経度": 135.1594761, "郵便番号": "652-0802", "土砂災害": null, "洪水": null, "津波": null, "備考": null, "FID": 268 }, "geometry": { "type": "Point", "coordinates": [ 135.1594761, 34.6703563 ] } },
{ "type": "Feature", "properties": { "F_": null, "区": "垂水", "緊急避難場所の利用": "○", "避難所の利用": "○", "名称": "多聞台小学校", "住所": "神戸市垂水区多聞台3-9-29", "電話番号": "078-782-0375", "緯度": 34.6621528, "経度": 135.040405, "郵便番号": "655-0001", "土砂災害": null, "洪水": null, "津波": null, "備考": null, "FID": 269 }, "geometry": { "type": "Point", "coordinates": [ 135.040405, 34.6621528 ] } },
{ "type": "Feature", "properties": { "F_": null, "区": "兵庫", "緊急避難場所の利用": "○", "避難所の利用": "○", "名称": "兵庫中学校", "住所": "神戸市兵庫区永沢町4-3-36", "電話番号": "078-577-0744", "緯度": 34.6736533, "経度": 135.16995, "郵便番号": "652-0616", "土砂災害": null, "洪水": null, "津波": null, "備考": null, "FID": 270 }, "geometry": { "type": "Point", "coordinates": [ 135.16995, 34.673653299999977 ] } },